City_ID,City,Lat,Lng,Max Temp,Humidity,Cloudiness,Wind Speed,Country,Date
0,hithadhoo,-0.6,73.0833,27.8,74,35,5.43,MV,1696276344
1,whitehorse,60.7161,-135.0538,8.39,77,75,4.63,CA,1696276344
2,elliot lake,46.3834,-82.6331,24.06,54,92,4.14,CA,1696276345
3,alta,69.9689,23.2717,2.59,86,100,3.09,NO,1696276345
4,saldanha,-33.0117,17.9442,15.58,85,0,6.75,ZA,1696276345
5,grand island,40.925,-98.342,31.97,39,0,8.75,US,1696276313
6,ribeira grande,38.5167,-28.7,20.22,68,20,4.63,PT,1696276345
7,manacapuru,-3.2997,-60.6206,36.1,31,100,1.44,BR,1696276345
8,al jubayl,27.0112,49.6583,31.87,48,0,2.6,SA,1696276346
9,weno,7.4515,151.8468,24.97,94,100,0.0,FM,1696276346
10,bam,29.106,58.357,26.57,19,0,1.46,IR,1696276346
11,bethel,41.3712,-73.414,26.05,59,75,2.57,US,1696276346
12,papatowai,-46.5619,169.4708,6.14,63,13,2.58,NZ,1696276347
13,east london,-33.0153,27.9116,18.81,76,0,7.55,ZA,1696276347
14,maceio,-9.6658,-35.7353,27.69,65,0,6.17,BR,1696276085
15,nishinoomote,30.7333,131.0,24.98,69,91,8.13,JP,1696276347
16,vilyuysk,63.7553,121.6247,1.11,75,100,1.79,RU,1696276347
17,lionel town,17.8101,-77.2406,33.94,62,84,3.75,JM,1696276348
18,stanley,54.868,-1.6985,11.01,91,20,2.06,GB,1696276348
19,susuman,62.7833,148.1667,-1.68,82,7,1.34,RU,1696276348
20,puerto ayora,-0.7393,-90.3518,26.98,92,95,3.13,EC,1696276348
21,port-aux-francais,-49.35,70.2167,1.88,69,83,14.97,TF,1696276348
22,edinburgh of the seven seas,-37.0676,-12.3116,9.76,55,36,10.27,SH,1696276348
23,port mathurin,-19.6833,63.4167,23.52,84,22,6.94,MU,1696276349
24,iskateley,67.6803,53.1512,3.9,78,84,9.39,RU,1696276349
25,atafu village,-8.5421,-172.5159,28.24,73,7,2.35,TK,1696276349
26,port augusta,-32.5,137.7667,15.79,82,59,4.8,AU,1696276349
27,jamestown,42.097,-79.2353,26.96,56,75,1.54,US,1696276112
28,grytviken,-54.2811,-36.5092,2.64,97,100,5.84,GS,1696276350
29,olonkinbyen,70.9221,-8.7187,2.44,97,100,7.59,SJ,1696276350
30,hawera,-39.5917,174.2833,6.52,82,100,6.48,NZ,1696276350
31,vallenar,-28.5708,-70.7581,16.44,33,1,4.44,CL,1696276089
32,puerto natales,-51.7236,-72.4875,8.25,66,75,3.6,CL,1696276351
33,sirsa,29.5333,75.0167,24.19,26,0,2.59,IN,1696276351
34,katsuura,35.1333,140.3,22.05,63,85,4.17,JP,1696276351
35,oranjemund,-28.55,16.4333,16.3,78,0,1.42,NA,1696276351
36,waitangi,-43.9535,-176.5597,11.57,85,94,2.68,NZ,1696276351
37,beipiao,41.7919,120.7792,16.54,43,100,4.17,CN,1696276352
38,hami,42.8,93.45,17.13,33,66,1.54,CN,1696276352
39,keflavik,64.0049,-22.5624,7.95,75,75,8.23,IS,1696276352
40,invercargill,-46.4,168.35,4.45,91,17,1.79,NZ,1696276352
41,tolanaro,-25.0319,46.9987,19.04,82,75,5.14,MG,1696276352
42,yellowknife,62.456,-114.3525,10.79,97,75,1.54,CA,1696276353
43,hawaiian paradise park,19.5933,-154.9731,27.71,81,100,1.54,US,1696276353
44,thompson,55.7435,-97.8558,6.09,87,100,1.54,CA,1696276353
45,dryden,49.7833,-92.7503,27.16,47,0,4.12,CA,1696276353
46,kimberley,-28.7323,24.7623,21.83,35,0,3.6,ZA,1696276353
47,lebu,-37.6167,-73.65,10.55,82,100,4.89,CL,1696276354
48,tandalti,13.0167,31.8667,33.85,34,6,4.29,SD,1696276104
49,qaqortoq,60.7167,-46.0333,5.94,53,100,1.44,GL,1696276354
50,aasiaat,68.7098,-52.8699,-4.71,69,0,3.98,GL,1696276354
51,enewetak,11.3474,162.3373,28.95,79,98,7.44,MH,1696276354
52,el tigre,8.8875,-64.2454,32.76,47,100,2.32,VE,1696276192
53,khor,47.8861,134.9464,7.49,88,89,1.56,RU,1696276355
54,fabens,31.5023,-106.1586,34.04,20,74,6.59,US,1696276355
55,blackmans bay,-43.0167,147.3167,14.07,65,100,7.08,AU,1696276355
56,longyearbyen,78.2186,15.6401,-3.09,74,75,8.75,SJ,1696276355
57,perry,37.2506,-83.1999,30.1,33,0,1.93,US,1696276356
58,odda,60.0691,6.5457,13.76,97,100,2.75,NO,1696276356
59,barah,13.7,30.3667,35.48,25,90,3.34,SD,1696276356
60,hammerfest,70.6634,23.6821,2.25,80,75,0.0,NO,1696276058
61,mejit,10.2753,170.8646,28.58,78,11,7.1,MH,1696276357
62,bilibino,68.0546,166.4372,-8.36,97,100,0.83,RU,1696276357
63,ushuaia,-54.8,-68.3,6.81,49,75,1.54,AR,1696276139
64,malvan,16.0667,73.4667,25.94,83,100,1.72,IN,1696276357
65,vilyuchinsk,52.9306,158.4028,8.85,93,100,6.65,RU,1696276357
66,san jose del guaviare,2.5729,-72.6459,32.45,57,100,0.74,CO,1696276358
67,sidi ifni,29.3797,-10.173,27.93,38,0,4.76,MA,1696276358
68,bodo,67.28,14.405,8.02,79,75,6.69,NO,1696276358
69,ain kercha,35.9247,6.6953,22.97,45,0,2.87,DZ,1696276358
70,port lincoln,-34.7333,135.8667,13.52,72,82,4.77,AU,1696276359
71,zdvinsk,54.7021,78.661,4.61,47,7,1.89,RU,1696276359
72,arkhangel'sk,64.5401,40.5433,3.4,84,46,1.97,RU,1696276200
73,clinton,42.587,-82.9199,29.41,55,0,2.06,US,1696276139
74,campamento,14.55,-86.65,27.82,69,92,1.21,HN,1696276360
75,fortuna,40.5982,-124.1573,20.52,69,0,2.57,US,1696276360
76,talnakh,69.4865,88.3972,-1.55,95,100,7.98,RU,1696276360
77,adamstown,-25.066,-130.1015,19.85,76,72,11.07,PN,1696276360
78,labytnangi,66.6572,66.4183,8.92,80,100,8.23,RU,1696276360
79,tiksi,71.6872,128.8694,-2.39,78,100,6.25,RU,1696276361
80,tuy hoa,13.0833,109.3,25.22,93,100,1.96,VN,1696276361
81,morehead city,34.7229,-76.726,27.02,62,0,3.13,US,1696276361
82,grand gaube,-20.0064,57.6608,23.54,75,2,2.13,MU,1696276361
83,funza,4.7164,-74.212,20.02,64,40,5.14,CO,1696276361
84,zaozersk,69.4005,32.4476,1.77,76,100,2.71,RU,1696276362
85,broome,42.2506,-75.833,25.11,70,40,0.89,US,1696276362
86,chonchi,-42.6128,-73.8092,11.56,80,100,0.63,CL,1696276362
87,lorengau,-2.0226,147.2712,26.6,82,98,3.05,PG,1696276362
88,colonia,50.9333,6.95,21.13,66,0,3.09,DE,1696276275
89,machico,32.7,-16.7667,24.45,79,20,5.14,PT,1696276363
90,mweka,-4.85,21.5667,22.92,83,38,0.26,CD,1696276363
91,isla aguada,18.7833,-91.4667,30.19,67,100,3.76,MX,1696276364
92,suva,-18.1416,178.4415,22.71,73,40,3.6,FJ,1696276166
93,west island,-12.1568,96.8225,24.99,73,75,9.77,CC,1696276364
94,iqaluit,63.7506,-68.5145,4.85,75,75,5.66,CA,1696276364
95,newman,37.3138,-121.0208,24.57,35,5,5.36,US,1696276365
96,aydintepe,40.3894,40.1506,9.93,89,100,1.45,TR,1696276365
97,hermanus,-34.4187,19.2345,15.72,78,0,1.21,ZA,1696276365
98,conde,-7.2597,-34.9075,27.7,69,20,5.14,BR,1696276365
99,port saint john's,-31.6229,29.5448,17.8,77,0,6.58,ZA,1696276366
100,gunnedah,-30.9833,150.25,15.89,52,5,1.18,AU,1696276086
101,albany,42.6001,-73.9662,25.51,51,44,1.34,US,1696276229
102,zeya,53.75,127.2667,6.05,85,18,1.34,RU,1696276366
103,daman,20.4167,72.85,25.49,79,41,3.25,IN,1696276367
104,san angelo,31.4638,-100.437,31.61,49,75,3.6,US,1696276084
105,phongsali,21.6833,102.1058,17.12,98,82,0.18,LA,1696276367
106,kursk,51.7303,36.1939,15.11,56,26,3.0,RU,1696276367
107,port douglas,-16.4833,145.4667,22.62,86,48,3.49,AU,1696276367
108,birchington-on-sea,51.3758,1.3048,19.08,94,100,0.89,GB,1696276368
109,fale old settlement,-9.3852,-171.2468,28.01,75,24,3.97,TK,1696276068
110,carnarvon,-24.8667,113.6333,16.23,64,0,11.23,AU,1696276368
111,laguna,38.421,-121.4238,26.27,44,0,4.12,US,1696276368
112,san fernando,15.0286,120.6898,26.85,93,100,1.78,PH,1696276369
113,luderitz,-26.6481,15.1594,16.74,74,0,3.44,NA,1696276369
114,college,64.8569,-147.8028,1.99,90,100,3.09,US,1696276369
115,jinxiang,27.4327,120.6062,21.87,80,18,3.59,CN,1696276369
116,taoudenni,22.6783,-3.9836,38.44,12,93,6.76,ML,1696276369
117,banda aceh,5.5577,95.3222,26.32,84,100,5.98,ID,1696276370
118,touros,-5.1989,-35.4608,25.86,77,99,6.25,BR,1696276370
119,namanyere,-7.5167,31.05,24.28,24,15,5.23,TZ,1696276370
120,anadyr,64.75,177.4833,-2.72,100,0,5.0,RU,1696276075
121,tura,25.5198,90.2201,23.46,97,100,2.5,IN,1696276370
122,ilulissat,69.2167,-51.1,0.01,43,0,3.09,GL,1696276371
123,uludere,37.445,42.8617,15.42,67,65,0.29,TR,1696276371
124,nabire,-3.3667,135.4833,24.23,91,100,0.59,ID,1696276371
125,bonthe,7.5264,-12.505,26.38,85,44,2.89,SL,1696276371
126,soe,-9.8607,124.284,17.65,87,10,1.86,ID,1696276371
127,utrik,11.2278,169.8474,28.67,78,13,7.45,MH,1696276371
128,kingston,17.997,-76.7936,33.53,68,40,4.63,JM,1696276102
129,neira,5.1665,-75.52,21.32,61,98,4.92,CO,1696276265
130,pisz,53.6274,21.8125,16.77,77,100,3.34,PL,1696276372
131,pemangkat,1.1667,108.9667,25.38,86,95,3.08,ID,1696276372
132,fuglafjordur,62.244,-6.814,10.26,89,100,9.53,FO,1696276372
133,burlington,39.8835,-74.6413,28.79,59,40,4.63,US,1696276346
134,pisco,-13.7,-76.2167,23.03,64,0,4.63,PE,1696276373
135,pangai,-19.8,-174.35,22.06,68,75,7.72,TO,1696276373
136,badger,64.8,-147.5333,1.95,92,100,3.09,US,1696276373
137,fisterra,42.9049,-9.2629,20.42,91,100,3.93,ES,1696276373
138,terenos,-20.4422,-54.8603,33.84,46,40,5.14,BR,1696276374
139,hamilton,39.1834,-84.5333,31.11,46,0,2.57,US,1696276374
140,ed damer,17.5928,33.9592,35.83,16,0,4.2,SD,1696276374
141,kargopol',61.5071,38.9456,6.7,81,73,1.34,RU,1696276374
142,naze,28.3667,129.4833,26.51,82,92,9.07,JP,1696276374
143,motygino,58.1831,94.7592,3.77,54,100,4.47,RU,1696276375
144,holualoa,19.6228,-155.9522,28.08,77,40,3.09,US,1696276375
145,yuzhno-kurilsk,44.0306,145.8556,14.65,74,24,7.27,RU,1696276375
146,xai-xai,-25.0519,33.6442,17.63,65,0,2.48,MZ,1696276375
147,alo,7.4178,6.7371,25.24,91,69,1.14,NG,1696276375
148,pangody,65.85,74.4859,9.12,88,100,7.4,RU,1696276376
149,balaipungut,1.05,101.2833,24.34,95,99,1.28,ID,1696276376
150,houma,29.5958,-90.7195,30.57,72,0,5.14,US,1696276376
151,tazovsky,67.4667,78.7,7.68,96,100,7.47,RU,1696276079
152,st. john's,47.5649,-52.7093,14.75,84,20,2.06,CA,1696276301
153,santiago de cao,-7.9589,-79.2392,22.07,73,40,5.66,PE,1696276377
154,fauske,67.2588,15.3918,8.02,94,100,2.26,NO,1696276377
155,naliya,23.2667,68.8333,26.21,80,0,3.47,IN,1696276377
156,vila franca do campo,37.7167,-25.4333,20.49,99,99,4.3,PT,1696276377
157,rameswaram,9.2833,79.3,27.44,84,85,12.62,IN,1696276377
158,kourou,5.1552,-52.6478,31.03,69,59,5.51,GF,1696276378
159,pariaman,-0.619,100.12,24.03,83,99,1.97,ID,1696276378
160,vila velha,-20.3297,-40.2925,24.97,86,75,4.63,BR,1696276378
161,praia da vitoria,38.7333,-27.0667,21.14,73,20,4.93,PT,1696276085
162,gotse delchev,41.5667,23.7333,13.55,62,37,1.9,BG,1696276379
163,remire-montjoly,4.9167,-52.2667,31.02,66,100,5.66,GF,1696276379
164,port blair,11.6667,92.75,26.02,94,75,0.51,IN,1696276379
165,margaret river,-33.95,115.0667,12.82,65,91,7.38,AU,1696276379
166,isafjordur,66.0755,-23.124,1.47,93,100,7.37,IS,1696276379
167,bredasdorp,-34.5322,20.0403,13.85,71,0,1.44,ZA,1696276380
168,martapura,-3.4167,114.85,25.05,100,94,1.03,ID,1696276380
169,armidale,-30.5167,151.65,11.55,52,0,1.55,AU,1696276380
170,port elizabeth,-33.918,25.5701,17.83,87,0,1.34,ZA,1696276380
171,minas de marcona,-15.2119,-75.1103,19.68,59,9,7.08,PE,1696276380
172,pama,11.2497,0.7075,27.27,73,100,2.34,BF,1696276381
173,grand falls-windsor,48.9332,-55.6649,16.32,51,2,2.55,CA,1696276381
174,georgetown,5.4112,100.3354,26.96,92,20,0.51,MY,1696276346
175,paradip garh,20.3167,86.6167,26.93,86,99,2.37,IN,1696276381
176,lafayette,30.2335,-92.0668,33.34,40,0,3.09,US,1696276381
177,vernon,50.2581,-119.2691,14.78,76,69,0.51,CA,1696276382
178,shagonar,51.5333,92.8,6.21,57,8,0.39,RU,1696276382
179,siwa oasis,29.2041,25.5195,26.72,33,96,4.51,EG,1696276382
180,ulsteinvik,62.3432,5.8487,13.2,80,93,5.81,NO,1696276085
181,rikaze,29.25,88.8833,11.51,57,96,1.48,CN,1696276382
182,constantia,44.1833,28.65,15.39,48,0,4.63,RO,1696276383
183,pudozh,61.8099,36.5345,6.08,82,85,1.34,RU,1696276383
184,qarazhal,48.0078,70.7903,10.28,79,71,4.78,KZ,1696276383
185,sisimiut,66.9395,-53.6735,2.51,68,82,1.17,GL,1696276383
186,mata-utu,-13.2816,-176.1745,27.1,81,91,11.86,WF,1696276384
187,kerikeri,-35.2268,173.9474,12.17,93,19,3.54,NZ,1696276384
188,miles city,46.4083,-105.8406,14.54,72,40,1.54,US,1696276384
189,ruovesi,61.9858,24.0571,10.35,96,100,2.64,FI,1696276384
190,sitka,57.0531,-135.33,10.94,87,100,3.09,US,1696276385
191,howrah,22.5892,88.3103,27.0,89,40,3.09,IN,1696276299
192,alofi,-19.0595,-169.9187,21.94,68,75,7.72,NU,1696276385
193,port hedland,-20.3167,118.5667,21.03,94,31,2.57,AU,1696276385
194,wailua homesteads,22.0669,-159.378,27.24,82,20,3.09,US,1696276385
195,avarua,-21.2078,-159.775,22.03,73,75,5.14,CK,1696276386
196,oumache,34.6929,5.6809,27.16,36,0,2.06,DZ,1696276386
197,gebeit,21.0667,36.3167,28.46,50,0,2.51,SD,1696276386
198,hasaki,35.7333,140.8333,16.22,52,99,4.38,JP,1696276386
199,chu,43.5983,73.7614,13.72,48,11,1.33,KZ,1696276387
200,belmonte,-15.8631,-38.8828,25.73,83,100,5.03,BR,1696276387
201,santa marta,11.2408,-74.199,35.03,76,20,4.12,CO,1696276373
202,smithers,54.7804,-127.1743,9.18,87,75,1.03,CA,1696276387
203,salto de agua,17.6167,-92.3667,32.04,65,97,1.59,MX,1696276388
204,heihe,50.2441,127.4902,5.7,84,53,1.04,CN,1696276388
205,tomatlan,19.9333,-105.25,32.52,66,100,4.15,MX,1696276388
206,alenquer,-1.9417,-54.7383,36.45,33,87,3.81,BR,1696276311
207,chalinze,-6.6378,38.354,22.21,78,27,0.93,TZ,1696276389
208,antofagasta,-23.65,-70.4,16.6,73,45,4.62,CL,1696276328
209,broken hill,-31.95,141.4333,20.47,62,100,10.43,AU,1696276389
210,mil'kovo,55.6078,37.7956,12.08,69,80,2.86,RU,1696276390
211,zhanga buqtyrma,49.6295,83.5248,8.92,68,21,0.4,KZ,1696276390
212,saipan,15.1355,145.701,28.39,89,40,4.12,MP,1696276390
213,songyang,34.4553,113.0281,13.83,94,62,1.35,CN,1696276391
214,greenacres city,26.6237,-80.1253,30.57,67,40,7.72,US,1696276372
215,goure,13.9835,10.2704,26.78,49,100,3.98,NE,1696276391
216,kapa'a,22.0752,-159.319,27.99,82,20,3.09,US,1696276391
217,punta arenas,-53.15,-70.9167,9.06,57,100,4.63,CL,1696276391
218,kapoeta,4.7717,33.5903,28.0,52,100,1.9,SS,1696276392
219,san antonio de pale,-1.4014,5.6325,25.39,86,100,6.35,GQ,1696276092
220,pionerskiy,54.9508,20.2275,17.86,85,100,7.05,RU,1696276392
221,carolina beach,34.0352,-77.8936,28.34,63,0,0.89,US,1696276392
222,otra banda,18.6502,-68.6628,30.71,71,94,5.45,DO,1696276392
223,lerum,57.7745,12.2697,14.96,94,0,3.09,SE,1696276393
224,dubovka,49.0583,44.829,15.53,45,98,2.08,RU,1696276393
225,happy valley-goose bay,53.3168,-60.3315,12.17,43,75,6.69,CA,1696276393
226,knoxville,35.9606,-83.9207,30.15,44,40,4.63,US,1696276393
227,karlskrona,56.1616,15.5866,15.25,98,100,3.81,SE,1696276394
228,brookings,44.3114,-96.7984,32.19,44,0,9.51,US,1696276205
229,lihue,21.9789,-159.3672,27.58,78,20,3.09,US,1696276394
230,manta,-0.95,-80.7333,28.88,65,40,5.66,EC,1696276145
231,hadibu,12.65,54.0333,27.08,81,6,1.49,YE,1696276394
232,san patricio,28.017,-97.5169,28.99,63,55,6.3,US,1696276395
233,micheweni,-4.9667,39.8333,25.47,83,37,6.12,TZ,1696276395
234,vorgashor,67.5833,63.95,2.89,95,100,8.74,RU,1696276395
235,booue,-0.0921,11.9385,24.09,97,52,1.01,GA,1696276395
236,puerto aysen,-45.4,-72.7,8.65,87,100,1.48,CL,1696276395
237,chaplygin,53.2432,39.9629,12.09,58,66,3.03,RU,1696276396
238,sarkisla,39.3519,36.4098,12.16,76,99,1.72,TR,1696276396
239,tromso,69.6496,18.957,4.01,75,75,4.63,NO,1696276170
240,isangel,-19.55,169.2667,23.06,73,75,2.06,VU,1696276396
241,pitanga,-24.7572,-51.7614,25.47,54,100,1.73,BR,1696276201
242,vorkuta,67.5,64.0,3.14,96,100,8.51,RU,1696276397
243,sao tome,0.3365,6.7273,26.02,83,75,2.06,ST,1696276397
244,yugorsk,61.3133,63.3319,12.16,72,82,4.03,RU,1696276397
245,kodiak,57.79,-152.4072,7.73,53,0,8.75,US,1696276397
246,usogorsk,63.4106,48.6872,7.04,86,64,2.63,RU,1696276398
247,khorixas,-20.3667,14.9667,24.36,20,3,3.83,NA,1696276398
248,glace bay,46.1969,-59.957,18.92,66,40,5.66,CA,1696276398
249,lobujya,27.95,86.8167,1.38,97,100,1.27,NP,1696276399
250,roma,43.2128,-75.4557,26.08,66,0,2.06,US,1696276399
251,brisas de zicatela,15.8369,-97.0419,30.8,69,71,3.63,MX,1696276399
252,natal,-5.795,-35.2094,28.12,69,20,6.69,BR,1696276391
253,acarau,-2.8856,-40.12,28.05,72,95,8.07,BR,1696276298
254,yeniseysk,58.4497,92.1703,3.86,58,100,4.47,RU,1696276400
255,kanniyakumari,8.0833,77.5667,26.17,87,99,6.71,IN,1696276400
256,tsiroanomandidy,-18.7667,46.0333,21.3,58,7,1.86,MG,1696276400
257,maintirano,-18.0667,44.0167,25.68,79,0,8.57,MG,1696276400
258,tarawa,1.419,172.984,29.05,74,20,1.03,KI,1696276400
259,berbera,10.4396,45.0143,30.14,62,0,0.08,SO,1696276401
260,caleta de carquin,-11.0925,-77.6267,21.3,78,36,5.41,PE,1696276401
261,afaahiti,-17.75,-149.2833,24.93,87,73,7.22,PF,1696276401
262,walvis bay,-22.9575,14.5053,14.53,88,0,2.57,NA,1696276401
263,severnoye,56.3491,78.3619,5.55,86,8,2.68,RU,1696276401
264,koryazhma,61.3143,47.1691,10.51,91,100,2.32,RU,1696276402
265,villa gesell,-37.2639,-56.973,12.81,78,97,6.47,AR,1696276402
266,howard springs,-12.497,131.047,25.95,84,39,1.44,AU,1696276402
267,bengkulu,-3.8004,102.2655,22.5,94,100,3.15,ID,1696276402
268,freetown,8.484,-13.2299,27.84,78,75,4.12,SL,1696276403
269,tegueste,28.5167,-16.3167,27.64,26,0,0.51,ES,1696276403
270,port alfred,-33.5906,26.891,16.77,90,0,0.45,ZA,1696276403
271,itaquitinga,-7.6678,-35.1017,25.34,68,17,3.98,BR,1696276403
272,waddan,29.1614,16.139,23.72,48,45,8.05,LY,1696276403
273,nephi,39.7102,-111.8363,10.71,79,99,1.77,US,1696276404
274,tual,-5.6667,132.75,26.35,87,31,5.7,ID,1696276404
275,razole,16.4833,81.8333,26.65,87,100,1.26,IN,1696276404
276,pahrump,36.2083,-115.9839,21.81,36,14,1.79,US,1696276404
277,shakhtinsk,49.71,72.5872,9.04,73,84,6.52,KZ,1696276404
278,wad az zaki,14.4619,32.2065,35.94,25,95,3.31,SD,1696276405
279,darwha,20.3167,77.7667,24.43,73,100,3.94,IN,1696276405
280,ceerigaabo,10.6162,47.368,20.5,42,1,1.74,SO,1696276405
281,ciudad bolivar,8.1222,-63.5497,34.7,46,99,2.9,VE,1696276405
282,kapuskasing,49.4169,-82.4331,28.05,54,40,7.2,CA,1696276406
283,ancud,-41.8697,-73.8203,9.57,58,86,3.2,CL,1696276406
284,winterset,41.3308,-94.0138,32.68,26,1,5.57,US,1696276406
285,hassi messaoud,31.6804,6.0729,26.92,36,0,2.57,DZ,1696276406
286,grantsville,40.5999,-112.4644,9.2,90,100,4.47,US,1696276407
287,dungarpur,23.8333,73.7167,25.79,42,1,2.55,IN,1696276407
288,kiunga,-6.1219,141.2906,23.19,100,100,0.36,PG,1696276407
289,la ronge,55.1001,-105.2842,7.14,81,100,4.63,CA,1696276407
290,chul'man,56.8479,124.9104,1.31,91,100,2.68,RU,1696276407
291,tacna,-18.0056,-70.2483,22.11,53,0,7.2,PE,1696276245
292,mormugao,15.4,73.8,25.59,94,75,1.03,IN,1696276408
293,nakonde,-9.3421,32.745,20.82,41,6,5.39,ZM,1696276408
294,tenno,39.9,139.9667,20.31,49,86,9.47,JP,1696276408
295,slave lake,55.2834,-114.769,11.99,76,40,2.57,CA,1696276408
296,lazaro cardenas,17.9583,-102.2,30.63,72,96,3.69,MX,1696276409
297,la sarre,48.8002,-79.1996,24.82,63,100,5.6,CA,1696276409
298,danilov,58.1908,40.1717,9.32,92,98,2.23,RU,1696276409
299,klyuchi,52.2667,79.1667,5.06,55,2,3.16,RU,1696276409
300,gamba,-2.65,10.0,25.08,87,87,3.4,GA,1696276410
301,kayangel,8.0823,134.7173,28.29,75,13,2.39,PW,1696276410
302,cuatro cienegas de carranza,26.9833,-102.0833,31.78,41,49,4.38,MX,1696276410
303,severo-yeniseyskiy,60.3725,93.0408,-3.01,87,100,3.58,RU,1696276410
304,sedona,34.8697,-111.761,22.09,34,40,5.14,US,1696276308
305,fort bragg,35.139,-79.006,29.39,47,20,5.14,US,1696276411
306,lompoc,34.6391,-120.4579,26.12,73,40,5.81,US,1696276411
307,biryusinsk,55.9634,97.8235,1.44,85,100,3.09,RU,1696276411
308,caconde,-21.5294,-46.6439,24.97,76,60,1.13,BR,1696276411
309,alice springs,-23.7,133.8833,28.75,20,43,7.2,AU,1696276411
310,gizo,-8.103,156.8419,26.85,85,97,5.89,SB,1696276412
311,fort st. john,56.2499,-120.8529,12.94,54,75,8.75,CA,1696276243
312,kovdor,67.5662,30.4758,0.98,76,100,1.96,RU,1696276412
313,ulladulla,-35.35,150.4667,18.48,64,100,3.26,AU,1696276412
314,westport,41.1415,-73.3579,25.9,65,75,3.09,US,1696276195
315,mandan,46.8267,-100.8896,20.56,85,100,3.6,US,1696276413
316,island harbour,50.724,-1.2758,18.85,94,100,0.45,GB,1696276413
317,dunedin,-45.8742,170.5036,7.67,66,10,1.34,NZ,1696276413
318,kijang,35.2442,129.2139,14.85,60,88,4.14,KR,1696276414
319,al ghayzah,16.2079,52.176,26.48,78,1,2.26,YE,1696276414
320,nacala,-14.5428,40.6728,23.75,85,0,3.25,MZ,1696276414
321,nar'yan-mar,67.6713,53.087,3.95,78,76,9.39,RU,1696276414
322,prieska,-29.6641,22.7474,26.55,19,0,2.83,ZA,1696276414
323,barra de santo antonio,-9.4047,-35.5072,27.6,72,2,4.44,BR,1696276307
324,douglas,41.3,-96.167,32.9,34,0,8.75,US,1696276415
325,caetite,-14.0694,-42.475,26.66,51,99,2.17,BR,1696276415
326,makurdi,7.7411,8.5121,25.09,90,100,1.11,NG,1696276415
327,busan,35.1028,129.0403,14.99,72,0,2.06,KR,1696276415
328,queenstown,-31.8976,26.8753,19.74,28,0,2.85,ZA,1696276416
329,jiuquan,39.7432,98.5174,12.97,39,99,1.47,CN,1696276416
330,san matias,-16.3667,-58.4,39.81,23,91,4.27,BO,1696276416
331,kiama,-34.6833,150.8667,18.1,86,16,3.13,AU,1696276416
332,la passe,45.5549,-0.8967,24.13,93,7,3.91,FR,1696276416
333,qurayyat,31.3318,37.3428,23.1,53,75,4.63,SA,1696276417
334,upington,-28.4478,21.2561,25.21,14,0,0.51,ZA,1696276417
335,flying fish cove,-10.4217,105.6791,23.82,78,75,5.66,CX,1696276417
336,prince george,53.9166,-122.753,14.03,82,75,5.14,CA,1696276283
337,east wenatchee bench,47.4257,-120.2812,18.6,53,0,1.54,US,1696276417
338,chiva,39.4667,-0.7167,23.06,82,8,0.67,ES,1696276418
339,igarka,67.4667,86.5833,0.78,97,100,10.88,RU,1696276418
340,solnechnyy,50.7214,136.6319,6.13,92,100,3.11,RU,1696276418
341,iturama,-19.7281,-50.1956,24.79,78,57,5.46,BR,1696276288
342,ringkobing,56.0901,8.244,12.23,80,100,2.21,DK,1696276419
343,taltal,-25.4,-70.4833,17.6,72,25,4.63,CL,1696276419
344,derzhavinsk,51.1,66.3167,10.38,65,0,2.95,KZ,1696276419
345,nantucket,41.2835,-70.0995,20.03,82,0,8.75,US,1696276399
346,hun,29.1268,15.9477,24.1,45,47,7.47,LY,1696276419
347,kristiansund,63.1115,7.732,10.36,81,75,0.0,NO,1696276420
348,gargalianoi,37.0667,21.6333,21.31,66,5,1.24,GR,1696276420
349,santander,43.4647,-3.8044,20.26,90,20,2.57,ES,1696276420
350,petropavlovsk-kamchatsky,53.0452,158.6483,8.03,92,100,6.71,RU,1696276420
351,high rock,26.6208,-78.2833,30.01,72,60,9.37,BS,1696276420
352,manaure balcon del cesar,10.3928,-73.0325,32.04,75,90,0.21,CO,1696276421
353,pitimbu,-7.4706,-34.8086,28.33,69,72,4.62,BR,1696276421
354,pacific grove,36.6177,-121.9166,21.33,77,0,3.13,US,1696276421
355,northam,51.0333,-4.2167,13.67,98,100,8.69,GB,1696276421
356,gorgan,36.8387,54.4348,18.98,77,40,0.0,IR,1696276421
357,oak creek,42.8858,-87.8631,30.33,52,75,5.14,US,1696276297
358,forres,57.6113,-3.6108,12.9,73,20,5.66,GB,1696276422
359,manaure,11.7751,-72.4445,30.63,71,87,7.15,CO,1696276422
360,guerrero negro,27.9769,-114.0611,21.83,51,0,7.52,MX,1696276422
361,wenchang,30.904,118.4887,19.43,86,98,1.23,CN,1696276422
362,mandla,22.6,80.3833,22.56,97,100,1.78,IN,1696276268
363,burang,30.25,81.1667,4.88,81,47,2.63,CN,1696276423
364,bani walid,31.7566,13.9942,21.78,67,0,5.63,LY,1696276423
365,yanam,16.7333,82.2167,25.74,89,100,1.9,IN,1696276423
366,murghob,38.1702,73.9667,2.05,51,1,2.4,TJ,1696276423
367,wuhai,39.6647,106.8122,15.07,67,53,2.08,CN,1696276424
368,gazojak,41.1875,61.4036,16.86,30,5,3.88,TM,1696276424
369,richards bay,-28.783,32.0377,18.37,57,0,6.68,ZA,1696276424
370,owando,-0.4819,15.8999,24.82,83,42,0.78,CG,1696276424
371,margate,51.3813,1.3862,19.06,94,100,0.89,GB,1696276424
372,kavaratti,10.5669,72.642,27.88,77,100,3.94,IN,1696276425
373,kharkhorin,47.1975,102.8238,3.28,90,95,1.3,MN,1696276425
374,khandyga,62.6667,135.6,5.44,88,100,1.11,RU,1696276425
375,merritt,50.1123,-120.7942,15.74,53,87,0.45,CA,1696276425
376,el bauga,18.262,33.9081,35.19,15,1,3.57,SD,1696276425
377,la'ie,21.6477,-157.9253,29.98,71,3,3.13,US,1696276426
378,belyy yar,53.6039,91.3903,-0.06,93,28,2.0,RU,1696276426
379,bursa,40.1667,29.0833,15.02,85,24,1.94,TR,1696276426
380,manokwari,-0.8667,134.0833,25.68,81,100,1.26,ID,1696276426
381,haiku-pauwela,20.9219,-156.3051,28.43,60,20,3.09,US,1696276427
382,salinopolis,-0.6136,-47.3561,28.52,74,19,5.79,BR,1696276427
383,orapa,-21.2833,25.3667,20.56,48,0,9.14,BW,1696276427
384,korla,41.7597,86.1469,18.57,31,99,4.23,CN,1696276427
385,cabo san lucas,22.8909,-109.9124,35.34,68,0,4.2,MX,1696276370
386,herning,56.1393,8.9738,13.06,94,100,1.54,DK,1696276427
387,ankang,32.68,109.0172,14.95,95,98,0.52,CN,1696276428
388,darwin,-12.4611,130.8418,25.99,78,75,4.02,AU,1696276428
389,chemolgan,43.1897,76.5292,12.81,51,86,0.13,KZ,1696276428
390,nemuro,43.3236,145.575,13.61,71,22,10.19,JP,1696276428
391,vadso,70.0744,29.7487,2.49,80,75,3.6,NO,1696276428
392,karachi,24.9056,67.0822,25.9,65,0,0.0,PK,1696276263
393,harper,4.375,-7.7169,25.26,86,82,5.33,LR,1696276429
394,buala,-8.145,159.5921,27.15,85,100,2.6,SB,1696276429
395,kailua-kona,19.6406,-155.9956,30.15,77,40,3.09,US,1696276429
396,padre bernardo,-15.35,-48.5,32.15,35,73,2.17,BR,1696276430
397,ialibu,-6.2821,143.9935,13.96,98,100,0.9,PG,1696276430
398,greymouth,-42.4667,171.2,6.19,75,0,4.05,NZ,1696276430
399,belokurikha,51.9959,84.9896,5.32,89,0,1.34,RU,1696276430
400,haimen,23.1935,116.6142,25.94,78,100,4.57,CN,1696276430
401,nguigmi,14.2495,13.1092,27.93,48,88,10.43,NE,1696276431
402,aripuana,-9.1667,-60.6333,40.02,20,89,1.3,BR,1696276431
403,nuku'alofa,-21.1333,-175.2,21.19,64,75,6.69,TO,1696276431
404,tainan,22.9908,120.2133,26.88,69,20,3.09,TW,1696276431
405,prado,-17.3411,-39.2208,25.03,86,100,4.7,BR,1696276431
406,nema,57.5067,50.5011,10.31,74,100,2.21,RU,1696276432
407,lycksele,64.5954,18.6735,3.93,100,20,1.03,SE,1696276432
408,chinchilla,-26.75,150.6333,13.66,95,0,4.16,AU,1696276432
409,bol'sherech'ye,56.0925,74.6272,7.2,79,3,3.73,RU,1696276432
410,kyzyl-suu,42.3414,78.0056,10.2,58,62,2.38,KG,1696276432
411,knottsville,37.7717,-86.9042,30.55,22,0,2.5,US,1696276433
412,arteche,12.2645,125.4048,26.37,87,100,2.28,PH,1696276433
413,sunyani,7.3399,-2.3268,22.84,97,99,1.54,GH,1696276433
414,arraial do cabo,-22.9661,-42.0278,21.98,88,75,3.09,BR,1696276433
415,nagqu,31.5,92.0,3.43,89,99,2.06,CN,1696276433
416,rio brilhante,-21.8019,-54.5464,36.3,29,57,2.35,BR,1696276434
417,puerto baquerizo moreno,-0.9,-89.6,27.55,69,40,7.72,EC,1696276434
418,santo antonio,-6.3106,-35.4789,26.82,61,82,6.59,BR,1696276434
419,papao,-17.75,-149.55,25.82,82,9,8.04,PF,1696276435
420,ngama,11.7833,17.1667,31.04,44,95,3.29,TD,1696276435
421,arroyo,41.6096,-4.7969,25.89,37,0,3.09,ES,1696276435
422,chui,-33.6971,-53.4616,15.98,71,0,3.2,UY,1696276435
423,menaka,15.9182,2.4022,35.68,26,41,5.09,ML,1696276436
424,ust-nera,64.5667,143.2,-1.55,81,31,0.89,RU,1696276436
425,gaspe,48.8334,-64.4819,18.12,52,75,4.63,CA,1696276428
426,erenhot,43.6475,111.9767,12.4,44,45,4.43,CN,1696276436
427,impfondo,1.6381,18.0667,25.21,82,96,1.37,CG,1696276436
428,nong kung si,16.65,103.3,28.09,86,97,1.88,TH,1696276437
429,saint-francois,46.4154,3.9054,19.69,73,0,2.57,FR,1696276437
430,taro,-8.3862,115.28,20.0,95,93,0.06,ID,1696276437
431,gustavia,17.8962,-62.8498,31.53,78,64,6.71,BL,1696276255
432,mengyin,35.7069,117.9264,16.69,72,100,0.81,CN,1696276437
433,gwadar,25.1216,62.3254,28.12,65,0,3.63,PK,1696276438
434,sao miguel do araguaia,-13.275,-50.1628,38.75,20,65,2.83,BR,1696276433
435,san felipe,10.3399,-68.7425,35.46,38,88,3.59,VE,1696276438
436,beira,-19.8436,34.8389,22.05,78,40,7.2,MZ,1696276438
437,buka,40.8108,69.1986,15.29,31,2,1.31,UZ,1696276438
438,saint-philippe,-21.3585,55.7679,22.77,83,49,2.26,RE,1696276439
439,hereford,52.0568,-2.7148,16.14,94,100,5.13,GB,1696276439
440,cadale,2.7603,46.3222,26.28,85,2,6.77,SO,1696276439
441,kashgar,39.4547,75.9797,18.56,34,0,5.0,CN,1696276439
442,kisaran,2.9845,99.6158,23.99,97,100,1.32,ID,1696276439
443,bardai,11.65,7.2333,22.2,88,96,3.0,NG,1696276440
444,la junta,37.985,-103.5438,27.88,40,97,11.62,US,1696276440
445,opuwo,-18.0607,13.84,25.63,17,10,1.78,NA,1696276440
446,hobyo,5.3505,48.5268,26.02,87,8,8.57,SO,1696276440
447,valparaiso,-33.0393,-71.6273,17.8,66,40,5.14,CL,1696276441
448,huarmey,-10.0681,-78.1522,22.02,76,26,5.41,PE,1696276441
449,vydrino,51.485,104.8461,4.41,67,31,1.96,RU,1696276441
450,al kawa,13.7463,32.4996,34.55,30,74,3.98,SD,1696276441
451,aykhal,66.0,111.5,-7.74,91,99,3.13,RU,1696276441
452,oamaru,-45.0784,170.9801,6.32,73,12,3.37,NZ,1696276442
453,karratha,-20.7377,116.8463,24.27,32,87,3.42,AU,1696276442
454,sambava,-14.2667,50.1667,23.37,81,43,0.4,MG,1696276442
455,trinity beach,-16.7888,145.6968,22.94,84,100,3.6,AU,1696276442
456,kissidougou,9.1848,-10.0999,22.79,91,100,0.26,GN,1696276443
457,luanco,43.6152,-5.7934,21.12,89,15,1.31,ES,1696276443
458,sterling,39.0062,-77.4286,29.19,54,20,3.6,US,1696276408
459,ouargla,31.9493,5.325,27.04,39,0,3.6,DZ,1696276443
460,udachny,66.4167,112.4,-7.16,95,12,2.5,RU,1696276443
461,new norfolk,-42.7826,147.0587,14.72,73,100,2.06,AU,1696276444
462,bibiani,6.4635,-2.3194,22.98,99,100,1.02,GH,1696276444
463,mount isa,-20.7333,139.5,13.87,51,6,0.0,AU,1696276444
464,urucara,-2.5364,-57.76,40.85,18,100,1.76,BR,1696276444
465,phan rang-thap cham,11.5667,108.9833,24.77,91,100,1.72,VN,1696276445
466,skovorodino,53.9833,123.9167,5.92,76,100,2.62,RU,1696276445
467,zhytkavichy,52.2168,27.8561,10.3,67,52,1.9,BY,1696276445
468,marka,1.7159,44.7717,25.95,87,4,6.35,SO,1696276446
469,ust'-ordynskiy,52.805,104.7508,1.85,71,96,1.21,RU,1696276446
470,nikolayevsk-on-amure,53.1406,140.73,8.16,98,100,2.25,RU,1696276446
471,tianpeng,30.9866,103.9393,21.46,81,94,1.08,CN,1696276446
472,piacabucu,-10.4056,-36.4344,25.08,71,0,4.91,BR,1696276446
473,ixtapa,20.7,-105.2,32.35,76,100,2.68,MX,1696276447
474,pirai do sul,-24.5261,-49.9486,22.68,66,90,1.57,BR,1696276447
475,yokadouma,3.5167,15.05,22.13,97,70,0.98,CM,1696276447
476,fort-shevchenko,44.5086,50.263,20.68,40,37,4.19,KZ,1696276447
477,labrador city,52.9463,-66.9114,9.95,43,75,4.12,CA,1696276448
478,horta,38.5333,-28.6333,19.8,73,20,4.63,PT,1696276216
479,muynoq,43.7683,59.0214,14.53,63,2,4.59,UZ,1696276448
480,grand baie,-20.0182,57.5802,23.03,76,2,2.2,MU,1696276448
481,tippi,7.2,35.45,18.41,98,100,1.39,ET,1696276448
482,coahuayana de hidalgo,18.7,-103.6583,31.99,69,65,3.0,MX,1696276449
483,tadine,-21.55,167.8833,21.52,71,100,8.59,NC,1696276449
484,calp,38.6447,0.0445,25.87,82,0,1.5,ES,1696276449
485,akureyri,65.6835,-18.0878,4.96,81,100,6.69,IS,1696276449
486,laojunmiao,39.8333,97.7333,11.74,39,96,1.65,CN,1696276449
487,poronaysk,49.2167,143.1167,10.72,90,100,6.1,RU,1696276450
488,tidjikja,18.5564,-11.4271,34.71,13,34,3.97,MR,1696276450
489,sangmelima,2.9333,11.9833,20.89,99,99,1.3,CM,1696276450
490,baikunthpur,23.25,82.55,23.04,96,100,4.59,IN,1696276450
491,hotan,37.0997,79.9269,19.03,19,100,1.51,CN,1696276451
492,adam,22.3756,57.5233,30.22,19,96,2.33,OM,1696276451
493,pekalongan,-6.8886,109.6753,24.55,70,100,2.88,ID,1696276451
494,svetlyy,54.675,20.1347,17.98,55,100,5.56,RU,1696276332
495,nuuk,64.1835,-51.7216,4.34,75,75,2.06,GL,1696276245
496,loralai,30.3705,68.598,18.35,11,0,3.26,PK,1696276452
497,wuyang,31.9925,116.2472,16.81,96,100,2.7,CN,1696276452
498,at taj,24.2049,23.2857,25.9,31,100,3.64,LY,1696276452
499,bela,25.9333,81.9833,25.65,87,100,1.86,IN,1696276453
500,lata,40.1629,-8.3327,21.07,86,0,1.31,PT,1696276453
501,san vicente de canete,-13.0751,-76.3835,21.41,77,60,3.53,PE,1696276453
502,geraldton,-28.7667,114.6,14.23,72,100,2.57,AU,1696276379
503,uturoa,-16.7333,-151.4333,26.09,81,1,6.72,PF,1696276454
504,gondar,12.6,37.4667,14.7,68,8,3.3,ET,1696276454
505,rongelap,11.1635,166.8941,28.96,76,100,5.21,MH,1696276454
506,downpatrick,54.3263,-5.7035,12.72,88,100,4.07,GB,1696276454
507,fuman,37.2273,49.3142,20.98,70,57,1.05,IR,1696276454
508,savanna-la-mar,18.219,-78.1332,31.63,68,56,2.83,JM,1696276455
509,idri,27.5,13.2667,27.81,28,0,9.16,LY,1696276455
510,kiffa,16.6166,-11.4045,37.57,19,66,1.19,MR,1696276455
511,achinsk,56.2694,90.4993,4.83,54,100,4.47,RU,1696276455
512,antsiranana,-12.2787,49.2917,23.49,85,32,3.88,MG,1696276456
513,olavarria,-36.8927,-60.3225,20.29,31,100,5.28,AR,1696276456
514,nichinan,31.6,131.3667,17.82,76,57,2.56,JP,1696276456
515,antonio enes,-16.2325,39.9086,24.64,85,1,4.49,MZ,1696276456
516,okhotsk,59.3833,143.3,6.18,77,12,4.12,RU,1696276456
517,garoua,9.3,13.4,25.22,94,20,2.06,CM,1696276457
518,anyksciai,55.5256,25.1026,12.78,76,100,3.42,LT,1696276457
519,sao joao da barra,-21.6403,-41.0511,24.05,90,86,4.35,BR,1696276457
520,nyurba,63.2842,118.3319,-1.09,75,94,2.24,RU,1696276457
521,tarko-sale,64.9225,77.785,9.44,87,100,7.6,RU,1696276458
522,gobabis,-22.45,18.9667,24.36,19,86,5.32,NA,1696276458
523,timbuktu,16.7735,-3.0074,36.02,23,97,1.67,ML,1696276458
524,dongola,19.1667,30.4833,35.0,16,42,9.3,SD,1696276458
525,oschersleben,52.0333,11.25,17.75,61,100,2.42,DE,1696276458
526,berezovyy,51.6667,135.7,6.13,91,98,0.98,RU,1696276459
527,acapulco de juarez,16.8634,-99.8901,31.9,70,75,3.6,MX,1696276319
528,polyarnyy,69.1989,33.4478,2.38,73,100,3.8,RU,1696276459
529,kavieng,-2.5744,150.7967,27.38,80,100,2.05,PG,1696276460
530,paciran,-6.8767,112.3761,25.09,78,96,2.48,ID,1696276460
531,troitsko-pechorsk,62.7084,56.1964,11.5,83,97,5.36,RU,1696276308
532,guelmim,28.987,-10.0574,29.41,20,0,3.94,MA,1696276460
533,yemva,62.59,50.8594,8.92,86,100,3.58,RU,1696276461
534,sandnessjoen,66.0217,12.6316,9.12,87,75,4.12,NO,1696276461
535,mora,11.0461,14.1401,28.27,42,79,0.84,CM,1696276461
536,puerto real,36.5282,-6.1901,28.12,73,0,1.03,ES,1696276462
537,il'skiy,44.8422,38.5669,21.02,58,89,2.94,RU,1696276462
538,ust'-ilimsk,58.0006,102.6619,-0.99,94,85,3.13,RU,1696276463
539,labuan bajo,-8.4964,119.8877,23.9,88,16,1.64,ID,1696276463
540,kuta,-8.7233,115.1723,23.97,100,20,1.54,ID,1696276463
541,inhambane,-23.865,35.3833,19.76,61,45,3.97,MZ,1696276463
542,le mee-sur-seine,48.5316,2.6283,24.71,76,0,2.57,FR,1696276464
543,villa angela,-27.5738,-60.7153,31.54,23,0,4.54,AR,1696276464
544,coruripe,-10.1256,-36.1756,24.92,72,1,5.19,BR,1696276275
545,novodvinsk,64.4165,40.8122,3.21,84,27,1.64,RU,1696276464
546,bo phloi,14.3236,99.5161,24.25,89,100,2.21,TH,1696276464
547,ilovlya,49.3033,43.9796,17.98,40,100,3.48,RU,1696276465
548,chibougamau,49.9168,-74.3659,16.79,72,100,6.17,CA,1696276465
549,kruisfontein,-34.0033,24.7314,16.6,40,0,1.85,ZA,1696276465
550,crane,31.3974,-102.3501,30.92,41,54,8.7,US,1696276465
551,mili,6.0815,171.735,28.56,76,38,2.93,MH,1696276466
552,gadzhiyevo,69.2551,33.3362,2.07,73,100,3.77,RU,1696276466
553,langarud,37.197,50.1535,20.7,72,88,1.35,IR,1696276466
554,pallasovka,50.05,46.8833,14.24,48,82,1.22,RU,1696276466
555,ashland,40.8167,-82.2665,28.92,52,3,0.94,US,1696276385
556,muzaffarabad,34.37,73.4711,18.0,42,0,2.21,PK,1696276467
557,ribeira brava,32.65,-17.0667,24.45,78,4,2.28,PT,1696276467
558,la libertad,-2.2333,-80.9,26.81,65,40,6.17,EC,1696276467
