City_ID,City,Lat,Lng,Max Temp,Humidity,Cloudiness,Wind Speed,Country,Date
0,korla,41.7597,86.1469,19.38,33,100,1.61,CN,1696046449
1,kamez,41.3817,19.7603,14.88,94,0,1.03,AL,1696046672
2,abu zabad,12.35,29.25,26.12,60,16,2.67,SD,1696046673
3,port-aux-francais,-49.35,70.2167,0.97,66,74,15.74,TF,1696046673
4,paidha,2.4167,30.9855,16.06,90,44,1.02,UG,1696046673
5,pathanamthitta,9.2667,76.7833,27.07,84,88,1.09,IN,1696046674
6,gwanda,-20.9333,29.0,18.13,82,23,1.64,ZW,1696046674
7,fale old settlement,-9.3852,-171.2468,28.73,71,9,3.74,TK,1696046628
8,pitea,65.3172,21.4794,11.05,94,100,0.95,SE,1696046674
9,fulton,33.7668,-84.4499,22.5,77,40,0.0,US,1696046675
10,puerto natales,-51.7236,-72.4875,2.99,86,100,1.32,CL,1696046675
11,touros,-5.1989,-35.4608,25.52,70,49,7.82,BR,1696046675
12,albany,42.6001,-73.9662,13.69,93,100,0.57,US,1696046675
13,margaret river,-33.95,115.0667,15.67,51,36,4.99,AU,1696046606
14,iskateley,67.6803,53.1512,4.42,86,100,7.64,RU,1696046676
15,ilulissat,69.2167,-51.1,1.01,69,100,3.09,GL,1696046676
16,vorgashor,67.5833,63.95,0.51,71,100,4.88,RU,1696046676
17,waitangi,-43.9535,-176.5597,11.01,78,81,2.68,NZ,1696046676
18,abepura,-2.6333,140.5833,32.45,55,20,2.57,ID,1696046677
19,vilyuchinsk,52.9306,158.4028,10.15,58,100,1.25,RU,1696046677
20,eyl,7.9803,49.8164,27.33,75,76,8.05,SO,1696046677
21,saint-andre,-20.95,55.65,26.3,65,0,7.2,RE,1696046677
22,morganton,35.7454,-81.6848,19.24,93,0,0.45,US,1696046677
23,papatowai,-46.5619,169.4708,7.23,87,96,9.53,NZ,1696046678
24,mpongwe,-13.5091,28.155,20.13,53,75,2.55,ZM,1696046678
25,broken hill,-31.95,141.4333,30.77,12,0,7.29,AU,1696046678
26,west bay,19.3667,-81.4167,30.04,83,20,2.06,KY,1696046678
27,bredasdorp,-34.5322,20.0403,13.83,87,100,8.42,ZA,1696046679
28,keflavik,64.0049,-22.5624,4.24,87,0,3.6,IS,1696046679
29,hithadhoo,-0.6,73.0833,28.13,78,32,7.07,MV,1696046679
30,callao,-12.0667,-77.15,19.29,82,75,3.6,PE,1696046624
31,avarua,-21.2078,-159.775,26.03,83,5,4.12,CK,1696046680
32,kirensk,57.7853,108.1119,11.17,70,100,2.88,RU,1696046680
33,adamstown,-25.066,-130.1015,20.71,86,5,10.69,PN,1696046680
34,dundee,56.5,-2.9667,9.58,94,20,3.09,GB,1696046680
35,tiksi,71.6872,128.8694,-1.08,87,100,5.91,RU,1696046680
36,iqaluit,63.7506,-68.5145,1.85,93,100,7.72,CA,1696046524
37,pangody,65.85,74.4859,0.56,77,89,5.21,RU,1696046681
38,thunder bay,48.4001,-89.3168,15.99,88,100,1.54,CA,1696046681
39,kununurra,-15.7667,128.7333,34.99,36,40,4.12,AU,1696046681
40,las vegas,36.175,-115.1372,29.38,20,0,12.07,US,1696046682
41,kabinda,-6.1333,24.4833,20.63,78,54,1.07,CD,1696046682
42,prineville,44.2999,-120.8345,10.25,95,100,3.09,US,1696046682
43,dawei,14.0833,98.2,26.47,87,100,1.71,MM,1696046682
44,grytviken,-54.2811,-36.5092,-0.15,91,53,4.2,GS,1696046589
45,ridgecrest,35.6225,-117.6709,23.92,27,0,6.69,US,1696046433
46,puerto ayora,-0.7393,-90.3518,23.08,94,95,4.47,EC,1696046683
47,pariaman,-0.619,100.12,28.03,68,75,3.19,ID,1696046683
48,ruiz,21.95,-105.15,26.97,94,26,1.01,MX,1696046683
49,blackmans bay,-43.0167,147.3167,22.51,47,98,4.7,AU,1696046602
50,laminusa,5.5549,120.9136,28.46,76,54,5.14,PH,1696046683
51,lewiston orchards,46.3804,-116.9754,12.62,86,100,0.0,US,1696046684
52,ushuaia,-54.8,-68.3,9.81,37,0,2.57,AR,1696046493
53,bathsheba,13.2167,-59.5167,28.34,89,20,4.12,BB,1696046684
54,stanley,54.868,-1.6985,9.33,95,75,2.57,GB,1696046684
55,pangai,-19.8,-174.35,24.06,64,75,5.14,TO,1696046685
56,college,64.8569,-147.8028,3.99,65,75,0.0,US,1696046685
57,edinburgh of the seven seas,-37.0676,-12.3116,10.97,90,100,17.13,SH,1696046685
58,hamilton,39.1834,-84.5333,18.18,94,100,0.45,US,1696046554
59,port macquarie,-31.4333,152.9167,26.05,63,1,7.79,AU,1696046685
60,magdagachi,53.45,125.8,12.17,50,91,3.51,RU,1696046686
61,ancud,-41.8697,-73.8203,7.81,74,52,3.7,CL,1696046419
62,lebu,-37.6167,-73.65,10.22,90,2,3.94,CL,1696046607
63,puerto baquerizo moreno,-0.9,-89.6,22.78,82,93,5.84,EC,1696046556
64,yellowknife,62.456,-114.3525,3.56,89,20,2.57,CA,1696046473
65,wailua homesteads,22.0669,-159.378,27.24,80,75,6.17,US,1696046687
66,uturoa,-16.7333,-151.4333,25.84,80,13,7.65,PF,1696046614
67,bubaque,11.2833,-15.8333,27.91,80,99,3.13,GW,1696046687
68,san patricio,28.017,-97.5169,29.35,72,0,5.11,US,1696046687
69,tura,25.5198,90.2201,24.8,96,100,1.03,IN,1696046687
70,porto barra do ivinheima,-22.9667,-53.6667,23.87,59,50,1.11,BR,1696046687
71,bambari,5.768,20.6757,21.41,97,100,1.05,CF,1696046688
72,west island,-12.1568,96.8225,26.99,78,100,6.17,CC,1696046688
73,weno,7.4515,151.8468,30.97,79,100,3.6,FM,1696046626
74,olonkinbyen,70.9221,-8.7187,2.32,77,99,6.01,SJ,1696046688
75,kapuskasing,49.4169,-82.4331,16.0,63,20,4.12,CA,1696046675
76,camabatela,-8.1881,15.375,17.6,96,100,1.32,AO,1696046689
77,aasiaat,68.7098,-52.8699,-2.51,88,93,2.47,GL,1696046602
78,utrik,11.2278,169.8474,28.37,78,80,5.22,MH,1696046689
79,mezhdurechenskiy,59.6,65.9333,1.65,76,17,3.73,RU,1696046689
80,novaya igirma,57.1334,103.9112,10.63,69,100,4.26,RU,1696046690
81,borogontsy,62.6683,131.1683,4.99,34,99,0.86,RU,1696046690
82,nkove,-7.95,30.85,24.45,59,71,2.06,TZ,1696046690
83,santa elena de uairen,4.6167,-61.1333,24.61,63,97,1.29,VE,1696046690
84,kropachevo,55.0112,57.9896,9.37,91,93,2.99,RU,1696046690
85,fenoarivo be,-18.4333,46.5667,18.42,61,3,1.65,MG,1696046691
86,nyurba,63.2842,118.3319,12.1,59,86,4.51,RU,1696046691
87,praia da vitoria,38.7333,-27.0667,20.42,94,75,2.63,PT,1696046638
88,sola,-13.8833,167.55,25.01,68,87,11.27,VU,1696046691
89,taltal,-25.4,-70.4833,14.22,86,4,1.7,CL,1696046421
90,gandajika,-6.75,23.95,20.92,82,53,0.67,CD,1696046693
91,lompoc,34.6391,-120.4579,18.21,88,100,3.13,US,1696046579
92,uzice,43.8586,19.8488,11.7,68,0,1.58,RS,1696046693
93,harper,4.375,-7.7169,24.87,88,83,2.81,LR,1696046694
94,st. john's,47.5649,-52.7093,9.66,90,40,1.03,CA,1696046694
95,hermanus,-34.4187,19.2345,14.53,87,100,8.98,ZA,1696046694
96,colonia,50.9333,6.95,13.31,91,100,1.03,DE,1696046580
97,poronaysk,49.2167,143.1167,15.17,64,78,3.35,RU,1696046695
98,dhalie,13.6957,44.7314,22.74,38,1,1.24,YE,1696046695
99,cidreira,-30.1811,-50.2056,17.8,90,99,5.0,BR,1696046695
100,thompson,55.7435,-97.8558,6.09,100,75,0.0,CA,1696046533
101,invercargill,-46.4,168.35,10.57,75,100,9.39,NZ,1696046695
102,lihue,21.9789,-159.3672,27.58,80,75,6.17,US,1696046599
103,haiku-pauwela,20.9219,-156.3051,26.01,81,40,7.72,US,1696046696
104,bethel,41.3712,-73.414,14.09,89,100,3.27,US,1696046404
105,gadzhiyevo,69.2551,33.3362,8.52,95,100,0.99,RU,1696046696
106,chippewa falls,44.9369,-91.3929,19.99,87,78,5.43,US,1696046410
107,las varillas,-31.8721,-62.7195,9.62,44,8,3.41,AR,1696046697
108,udachny,66.4167,112.4,3.03,100,100,1.08,RU,1696046697
109,fort st. john,56.2499,-120.8529,6.94,100,100,1.54,CA,1696046616
110,bilibino,68.0546,166.4372,-3.76,93,100,3.82,RU,1696046697
111,port alfred,-33.5906,26.891,17.88,79,97,3.58,ZA,1696046697
112,anadyr,64.75,177.4833,6.28,86,75,2.0,RU,1696046698
113,pisco,-13.7,-76.2167,18.03,82,100,2.06,PE,1696046698
114,fu'an,27.0892,119.6453,32.93,60,18,0.4,CN,1696046698
115,pitimbu,-7.4706,-34.8086,24.33,73,94,6.4,BR,1696046698
116,karak city,31.1637,35.762,20.36,34,0,1.43,JO,1696046699
117,katsuura,35.1333,140.3,28.01,70,26,5.16,JP,1696046699
118,hafar al-batin,28.4328,45.9708,26.32,22,0,1.03,SA,1696046699
119,gereida,11.2811,25.1414,25.0,75,27,3.69,SD,1696046699
120,georgetown,5.4112,100.3354,32.75,72,20,3.09,MY,1696046505
121,kapa'a,22.0752,-159.319,27.99,80,75,6.17,US,1696046700
122,dryden,49.7833,-92.7503,12.16,100,100,2.57,CA,1696046700
123,mana,5.6592,-53.7767,26.01,87,6,4.99,GF,1696046700
124,bamboo flat,11.7,92.7167,29.05,79,75,6.17,IN,1696046700
125,manavalakurichi,8.1333,77.3,27.29,79,100,4.19,IN,1696046700
126,opuwo,-18.0607,13.84,18.5,42,57,1.67,NA,1696046701
127,nemuro,43.3236,145.575,18.15,70,100,4.39,JP,1696046701
128,mhamid,29.82,-5.72,23.96,27,1,2.2,MA,1696046701
129,longyearbyen,78.2186,15.6401,-0.09,69,75,5.14,SJ,1696046607
130,selfoss,63.9331,-20.9971,2.8,77,80,3.48,IS,1696046701
131,port lincoln,-34.7333,135.8667,28.56,28,36,6.78,AU,1696046702
132,port douglas,-16.4833,145.4667,24.4,63,60,6.59,AU,1696046702
133,ghanzi,-21.5667,21.7833,17.98,25,0,2.93,BW,1696046702
134,saint-pierre,-21.3393,55.4781,26.43,53,0,2.06,RE,1696046703
135,manicore,-5.8092,-61.3003,27.97,57,65,1.19,BR,1696046703
136,susuman,62.7833,148.1667,-0.86,62,62,1.26,RU,1696046703
137,beberibe,-4.1797,-38.1306,25.42,80,58,7.07,BR,1696046704
138,kuruman,-27.4524,23.4325,15.94,14,34,3.81,ZA,1696046704
139,port elizabeth,-33.918,25.5701,17.4,87,75,9.77,ZA,1696046433
140,wamba,8.9333,8.6,20.97,94,79,0.85,NG,1696046704
141,chonchi,-42.6128,-73.8092,4.51,90,35,0.32,CL,1696046619
142,es castell,39.8795,4.2854,21.38,100,0,2.57,ES,1696046705
143,port mathurin,-19.6833,63.4167,23.1,69,42,6.57,MU,1696046705
144,remire-montjoly,4.9167,-52.2667,25.02,88,0,0.51,GF,1696046705
145,holualoa,19.6228,-155.9522,25.91,83,40,3.09,US,1696046706
146,sitka,57.0531,-135.33,8.94,87,75,2.06,US,1696046706
147,sumbe,-11.2061,13.8437,21.98,90,100,1.79,AO,1696046706
148,isafjordur,66.0755,-23.124,3.81,88,89,3.04,IS,1696046594
149,mozarlandia,-14.7447,-50.5706,27.03,70,47,2.55,BR,1696046707
150,tahe,52.3333,124.7333,10.62,52,86,3.97,CN,1696046707
151,konakovo,56.7,36.7667,11.29,89,99,2.46,RU,1696046707
152,saint-philippe,-21.3585,55.7679,24.77,80,9,3.92,RE,1696046707
153,kanniyakumari,8.0833,77.5667,27.33,78,100,6.11,IN,1696046708
154,enniskillen,54.3461,-7.6413,8.83,99,100,1.18,GB,1696046708
155,carnarvon,-24.8667,113.6333,22.59,50,0,8.71,AU,1696046708
156,el bauga,18.262,33.9081,33.19,21,36,1.97,SD,1696046708
157,cannonvale,-20.2833,148.7,24.66,64,81,5.83,AU,1696046708
158,gaiman,-43.2897,-65.4929,7.37,60,0,6.33,AR,1696046709
159,mendi,-6.1761,143.6513,15.83,97,97,1.07,PG,1696046709
160,ishikawa,26.4233,127.8214,31.41,80,100,3.09,JP,1696046709
161,nizhnesortymskiy,62.4397,71.7603,1.58,70,26,4.03,RU,1696046710
162,mollerussa,41.6333,0.9,18.65,61,1,0.69,ES,1696046710
163,islamnagar,28.3333,78.7167,29.26,60,17,1.18,IN,1696046710
164,naze,28.3667,129.4833,27.51,82,13,2.87,JP,1696046710
165,najaf,31.9985,44.3398,26.88,28,0,3.6,IQ,1696046710
166,punta arenas,-53.15,-70.9167,6.06,61,0,4.12,CL,1696046540
167,badger,64.8,-147.5333,3.95,66,75,0.0,US,1696046603
168,nar'yan-mar,67.6713,53.087,4.46,86,100,7.62,RU,1696046711
169,'ain el melh,34.8415,4.1638,17.5,52,0,1.47,DZ,1696046711
170,whitehorse,60.7161,-135.0538,5.43,94,75,1.54,CA,1696046475
171,afaahiti,-17.75,-149.2833,26.7,85,45,8.03,PF,1696046620
172,constantia,44.1833,28.65,19.38,57,30,7.69,RO,1696046608
173,monte cristo,-31.3431,-63.9444,9.75,36,15,2.51,AR,1696046712
174,mishan,45.55,131.8833,16.88,60,28,6.05,CN,1696046712
175,morehead city,34.7229,-76.726,21.1,90,100,3.09,US,1696046615
176,ketchikan,55.3422,-131.6461,11.26,76,100,2.57,US,1696046713
177,hovd,48.0056,91.6419,8.88,40,100,0.4,MN,1696046713
178,lodja,-3.4833,23.4333,20.7,90,90,0.92,CD,1696046713
179,mangrol,21.1167,70.1167,29.22,68,82,4.78,IN,1696046713
180,ribeira grande,38.5167,-28.7,19.32,77,100,4.02,PT,1696046714
181,matelandia,-25.2408,-53.9964,19.23,76,85,1.1,BR,1696046715
182,tyukhtet,56.5389,89.3011,9.95,76,90,4.1,RU,1696046715
183,nagari,13.3333,79.5833,28.94,57,100,5.2,IN,1696046716
184,hilo,19.7297,-155.09,26.85,77,75,2.06,US,1696046651
185,al jumum,21.6169,39.6981,31.8,31,1,0.88,SA,1696046716
186,jamestown,42.097,-79.2353,14.8,98,0,2.57,US,1696046470
187,marks,51.7111,46.7486,15.24,67,43,1.85,RU,1696046717
188,ust-nera,64.5667,143.2,0.17,61,34,2.22,RU,1696046717
189,malango,-2.9627,119.9001,29.55,43,53,1.91,ID,1696046717
190,hawaiian paradise park,19.5933,-154.9731,26.73,81,75,2.06,US,1696046595
191,kruisfontein,-34.0033,24.7314,14.94,86,97,8.32,ZA,1696046718
192,shingu,33.7333,135.9833,27.68,69,40,2.56,JP,1696046718
193,tolanaro,-25.0319,46.9987,20.04,88,0,0.0,MG,1696046718
194,zeya,53.75,127.2667,11.39,54,92,4.11,RU,1696046532
195,kodiak,57.79,-152.4072,9.73,71,0,3.6,US,1696046719
196,shunyi,40.125,116.6453,24.97,27,0,5.0,CN,1696046719
197,north bend,43.4065,-124.2243,13.25,94,100,6.69,US,1696046719
198,homer,59.6425,-151.5483,7.94,68,0,0.0,US,1696046719
199,mount gambier,-37.8333,140.7667,28.41,25,72,5.6,AU,1696046719
200,rio rico,31.4715,-110.9765,25.8,26,0,2.06,US,1696046720
201,margate,51.3813,1.3862,12.61,86,55,0.45,GB,1696046720
202,leh,34.1667,77.5833,7.75,37,15,2.31,IN,1696046720
203,nova sintra,14.8667,-24.7167,24.39,79,72,2.33,CV,1696046720
204,bargaal,11.2864,51.0773,28.09,71,42,2.67,SO,1696046721
205,usinsk,65.9939,57.5281,1.56,85,76,7.61,RU,1696046721
206,enewetak,11.3474,162.3373,28.79,77,68,5.37,MH,1696046721
207,palmer,42.1584,-72.3287,11.9,83,100,4.63,US,1696046722
208,sinabang,2.4803,96.3801,28.66,75,93,2.99,ID,1696046722
209,souillac,-20.5167,57.5167,23.21,88,75,3.6,MU,1696046722
210,nagqu,31.5,92.0,11.36,49,39,4.14,CN,1696046722
211,tazovsky,67.4667,78.7,-1.57,73,10,6.62,RU,1696046616
212,nova vicosa,-17.8919,-39.3719,23.15,80,100,4.99,BR,1696046557
213,maqat,47.65,53.3167,17.71,40,89,2.33,KZ,1696046723
214,hadibu,12.65,54.0333,26.98,82,86,3.2,YE,1696046610
215,ati,13.2154,18.3353,29.25,56,91,1.1,TD,1696046723
216,flin flon,54.7682,-101.865,10.89,83,100,0.68,CA,1696046547
217,yarovoye,52.9273,78.58,12.83,62,99,1.37,RU,1696046724
218,parabel',58.6978,81.4825,1.67,74,93,6.17,RU,1696046725
219,san antonio de pale,-1.4014,5.6325,24.45,84,84,4.01,GQ,1696046725
220,geraldton,-28.7667,114.6,22.23,49,40,5.66,AU,1696046725
221,pleszew,51.8964,17.7855,17.32,81,100,4.39,PL,1696046725
222,onega,63.9061,38.1404,12.68,95,84,4.29,RU,1696046726
223,kismayo,-0.3582,42.5454,26.25,80,20,6.23,SO,1696046726
224,ixtapa,20.7,-105.2,29.57,89,75,1.54,MX,1696046726
225,waat,51.1454,6.4958,12.66,95,20,1.03,DE,1696046726
226,rikaze,29.25,88.8833,15.06,35,100,0.84,CN,1696046727
227,saint-joseph,-21.3667,55.6167,25.82,74,4,3.77,RE,1696046727
228,khovd,48.0056,91.6419,8.88,40,100,0.4,MN,1696046727
229,la'ie,21.6477,-157.9253,27.98,78,100,3.13,US,1696046727
230,arraias,-12.9288,-46.9437,25.77,62,97,1.1,BR,1696046728
231,forster,-32.1667,152.5167,24.65,71,3,7.02,AU,1696046728
232,windhoek,-22.5594,17.0832,19.11,18,1,2.06,NA,1696046728
233,devonport,-41.1667,146.35,17.27,88,74,6.28,AU,1696046728
234,baykal'sk,51.5058,104.1469,11.04,65,92,2.14,RU,1696046729
235,cabedelo,-6.9811,-34.8339,24.37,76,61,4.29,BR,1696046439
236,san pedro,14.35,121.0167,32.37,72,75,5.14,PH,1696046729
237,basco,20.4487,121.9702,29.06,81,56,5.84,PH,1696046729
238,patnanungan,14.7833,122.1833,29.83,69,97,1.59,PH,1696046730
239,niafunke,15.9322,-3.9906,32.04,29,60,4.54,ML,1696046730
240,aso,32.9551,131.0967,27.21,62,14,3.13,JP,1696046730
241,san luis de la loma,17.2706,-100.8939,28.23,87,82,2.72,MX,1696046730
242,juankoski,63.0667,28.35,12.98,97,87,3.36,FI,1696046730
243,conceicao da barra,-18.5933,-39.7322,22.3,78,100,2.91,BR,1696046589
244,muli,2.9167,73.5667,28.59,73,76,6.5,MV,1696046731
245,klyuchi,52.2667,79.1667,13.94,55,93,2.34,RU,1696046731
246,chadron,42.8294,-102.9999,12.86,88,0,2.06,US,1696046731
247,pass christian,30.3158,-89.2475,23.89,94,0,1.54,US,1696046731
248,fairfax,38.8501,-77.3497,18.5,85,100,0.45,US,1696046732
249,minas de marcona,-15.2119,-75.1103,13.91,85,89,4.7,PE,1696046605
250,pangoa,-12.1167,-73.0,21.03,94,100,0.56,PE,1696046732
251,portland,45.5234,-122.6762,15.55,80,100,0.89,US,1696046642
252,nadym,65.5333,72.5167,1.01,78,97,4.11,RU,1696046603
253,buka,40.8108,69.1986,21.11,28,94,3.19,UZ,1696046733
254,hotan,37.0997,79.9269,19.33,29,0,5.96,CN,1696046733
255,songea,-10.6833,35.65,16.23,91,21,2.31,TZ,1696046733
256,al bawiti,28.3492,28.8659,24.41,50,43,3.08,EG,1696046733
257,itoman,26.1247,127.6694,31.43,88,75,4.63,JP,1696046733
258,burang,30.25,81.1667,8.68,49,9,3.11,CN,1696046734
259,westport,41.1415,-73.3579,15.5,91,100,4.02,US,1696046734
260,talnakh,69.4865,88.3972,-3.77,85,60,5.61,RU,1696046734
261,lata,40.1629,-8.3327,20.04,51,1,1.86,PT,1696046734
262,mar del plata,-38.0023,-57.5575,8.38,89,100,6.17,AR,1696046735
263,arenapolis,-14.4503,-56.8461,26.2,70,99,0.76,BR,1696046735
264,kurchatov,51.6601,35.6521,5.23,51,2,0.76,RU,1696046735
265,howard springs,-12.497,131.047,32.68,30,11,2.34,AU,1696046640
266,egilsstadir,65.2653,-14.3948,3.95,87,100,1.03,IS,1696046735
267,daru,-9.0763,143.2092,25.71,79,91,7.44,PG,1696046736
268,taro,-8.3862,115.28,25.0,41,65,2.75,ID,1696046736
269,atafu village,-8.5421,-172.5159,28.99,69,50,3.43,TK,1696046629
270,saacow,1.6279,42.4407,24.78,84,78,5.62,SO,1696046736
271,kirakira,-10.4544,161.9205,27.25,84,100,5.98,SB,1696046736
272,viedma,-40.8135,-62.9967,3.49,84,0,2.26,AR,1696046737
273,akureyri,65.6835,-18.0878,1.96,93,40,1.03,IS,1696046631
274,krasnokamensk,50.0979,118.0369,13.16,36,17,4.79,RU,1696046737
275,al jawf,29.5,38.75,22.4,29,0,3.58,SA,1696046738
276,cockburn town,21.4612,-71.1419,29.14,80,2,7.29,TC,1696046738
277,musoma,-1.5,33.8,21.03,65,39,3.92,TZ,1696046738
278,turpan,42.9333,89.1667,26.48,16,100,1.16,CN,1696046738
279,kuhmo,64.1333,29.5167,11.84,94,98,3.73,FI,1696046738
280,maksatikha,57.797,35.8825,11.95,86,100,2.55,RU,1696046739
281,vernon,50.2581,-119.2691,8.85,81,100,1.54,CA,1696046734
282,hasaki,35.7333,140.8333,27.38,76,46,3.64,JP,1696046739
283,shenjiamen,29.9576,122.298,26.04,80,37,7.03,CN,1696046737
284,qaqortoq,60.7167,-46.0333,2.04,87,16,3.44,GL,1696046740
285,kamyzyak,46.11,48.0736,11.99,87,0,2.0,RU,1696046740
286,meridian,43.6121,-116.3915,17.88,46,40,5.66,US,1696046724
287,boa vista,2.8197,-60.6733,29.99,62,0,2.57,BR,1696046740
288,qarqaraly,49.4058,75.4742,7.73,93,100,3.81,KZ,1696046740
289,sydney,-33.8679,151.2073,32.4,65,0,6.69,AU,1696046741
290,khilok,51.3674,110.4676,12.67,48,5,2.9,RU,1696046741
291,vadso,70.0744,29.7487,6.49,93,99,4.12,NO,1696046613
292,polyarnyy,69.1989,33.4478,8.94,95,100,1.04,RU,1696046627
293,birjand,32.8663,59.2211,12.26,24,0,2.06,IR,1696046741
294,saipan,15.1355,145.701,30.39,70,0,3.09,MP,1696046672
295,mukalla,14.5425,49.1242,27.68,76,3,1.76,YE,1696046742
296,luza,60.6308,47.2512,8.77,94,100,2.69,RU,1696046743
297,suoyarvi,62.0833,32.35,12.08,96,100,3.22,RU,1696046743
298,petropavlovsk-kamchatsky,53.0452,158.6483,9.33,62,0,5.0,RU,1696046745
299,alice springs,-23.7,133.8833,33.75,11,0,3.09,AU,1696046745
300,new norfolk,-42.7826,147.0587,23.17,48,100,6.01,AU,1696046745
301,horqueta,-23.3428,-57.0597,20.25,59,22,1.88,PY,1696046745
302,susanville,40.4163,-120.653,13.91,68,100,5.66,US,1696046745
303,harnoli,32.2792,71.5539,29.98,33,0,4.42,PK,1696046746
304,magomeni,-6.8,39.25,24.13,82,5,2.07,TZ,1696046746
305,bel ombre,-4.6167,55.4167,25.91,89,40,6.17,SC,1696046746
306,sarmanovo,55.2553,52.5891,10.38,91,17,3.27,RU,1696046746
307,scarborough,54.2797,-0.4044,11.06,89,100,2.92,GB,1696046747
308,lazaro cardenas,17.9583,-102.2,27.97,85,11,1.81,MX,1696046747
309,youngsville,30.0996,-91.9901,25.52,78,0,3.09,US,1696046747
310,port saint john's,-31.6229,29.5448,21.39,46,72,4.2,ZA,1696046620
311,cooper's town,26.8667,-77.5167,28.58,77,25,4.66,BS,1696046747
312,mossel bay,-34.1831,22.146,14.96,84,100,4.78,ZA,1696046748
313,novoorsk,51.381,58.9813,9.36,68,100,2.42,RU,1696046748
314,ciudad madero,22.2667,-97.8333,29.11,84,0,3.09,MX,1696046748
315,ust'-ilimsk,58.0006,102.6619,8.69,78,97,3.62,RU,1696046748
316,acapulco de juarez,16.8634,-99.8901,27.9,74,40,1.54,MX,1696046748
317,yinchuan,38.4681,106.2731,20.04,18,0,2.36,CN,1696046749
318,tralee,52.2704,-9.7026,10.9,96,100,2.21,IE,1696046667
319,tunceli,39.1083,39.5471,18.55,45,8,2.08,TR,1696046750
320,namibe,-15.1961,12.1522,17.02,89,10,2.0,AO,1696046750
321,xichang,27.8964,102.2634,24.05,71,44,1.52,CN,1696046750
322,torres,-29.3353,-49.7269,18.24,93,39,2.69,BR,1696046567
323,yuzhno-kurilsk,44.0306,145.8556,18.12,68,100,3.58,RU,1696046751
324,brandon,27.9378,-82.2859,26.27,93,40,2.57,US,1696046460
325,al wafrah,28.6392,47.9306,28.79,16,0,4.48,KW,1696046751
326,tadine,-21.55,167.8833,21.38,58,0,6.76,NC,1696046751
327,williamston,35.8546,-77.0555,19.94,83,91,2.54,US,1696046752
328,mugia,43.1041,-9.2179,16.62,87,4,2.18,ES,1696046752
329,kokopo,-4.352,152.2633,27.04,83,70,0.39,PG,1696046752
330,nuuk,64.1835,-51.7216,1.34,100,100,4.12,GL,1696046752
331,san jose,37.3394,-121.895,18.05,75,75,16.54,US,1696046740
332,ambodifotatra,-16.9833,49.85,23.03,94,75,0.0,MG,1696046753
333,el calafate,-50.3408,-72.2768,5.45,59,100,1.82,AR,1696046753
334,formosa do rio preto,-11.0483,-45.1931,25.59,36,37,1.41,BR,1696046753
335,sandnessjoen,66.0217,12.6316,8.29,79,91,3.3,NO,1696046753
336,acara,-1.9608,-48.1967,23.16,90,43,1.38,BR,1696046753
337,lai,9.3952,16.2989,22.9,90,75,0.99,TD,1696046754
338,lindi,-10.0,39.7167,24.36,78,68,1.92,TZ,1696046754
339,coquitlam,49.283,-122.7526,12.8,87,1,1.03,CA,1696046754
340,the pas,53.8251,-101.2541,10.01,100,0,2.57,CA,1696046754
341,severo-yeniseyskiy,60.3725,93.0408,4.96,90,100,5.75,RU,1696046625
342,ulladulla,-35.35,150.4667,30.43,30,3,2.42,AU,1696046474
343,kiunga,-6.1219,141.2906,30.38,60,88,1.48,PG,1696046755
344,port shepstone,-30.7414,30.455,21.4,50,65,3.52,ZA,1696046755
345,la passe,45.5549,-0.8967,18.13,91,17,2.17,FR,1696046598
346,fort bragg,35.139,-79.006,17.75,93,0,0.0,US,1696046600
347,paradip garh,20.3167,86.6167,25.67,92,100,2.34,IN,1696046756
348,taiynsha,53.8478,69.7639,11.49,70,100,2.35,KZ,1696046756
349,berwick-upon-tweed,55.7833,-2.0,10.13,90,43,4.81,GB,1696046756
350,nelson bay,-32.7167,152.15,26.03,77,1,6.71,AU,1696046756
351,kimbe,-5.5502,150.1429,26.55,88,99,2.41,PG,1696046756
352,gagliano del capo,39.8442,18.3695,17.67,78,11,5.85,IT,1696046757
353,karratha,-20.7377,116.8463,36.63,19,55,3.61,AU,1696046757
354,zhuzhou,27.8333,113.15,27.07,54,2,3.2,CN,1696046757
355,hassi messaoud,31.6804,6.0729,21.92,37,0,2.06,DZ,1696046758
356,yichang,30.7144,111.2847,23.22,81,100,0.3,CN,1696046758
357,khabarovsk,48.4808,135.0928,10.89,93,40,2.0,RU,1696046466
358,stung treng,13.5259,105.9683,29.89,74,48,3.0,KH,1696046758
359,nogliki,51.8333,143.1667,13.93,67,46,2.49,RU,1696046759
360,taoudenni,22.6783,-3.9836,27.38,25,5,5.09,ML,1696046759
361,igarka,67.4667,86.5833,-3.61,92,100,8.69,RU,1696046759
362,atabey,37.9508,30.6386,14.9,79,7,1.47,TR,1696046759
363,vallenar,-28.5708,-70.7581,15.13,65,14,0.99,CL,1696046759
364,tsiombe,-25.3,45.4833,22.46,67,27,2.14,MG,1696046760
365,al jubayl,27.0112,49.6583,30.68,49,0,2.98,SA,1696046760
366,wewak,-3.5534,143.6268,28.73,75,35,4.47,PG,1696046760
367,saint-louis,16.3333,-15.0,28.8,59,100,4.26,SN,1696046760
368,lodwar,3.1191,35.5973,26.94,58,35,4.79,KE,1696046760
369,port moresby,-9.4431,147.1797,30.68,62,40,10.29,PG,1696046761
370,ampara,7.2833,81.6667,30.54,59,86,4.31,LK,1696046761
371,guerrero negro,27.9769,-114.0611,19.49,80,0,6.11,MX,1696046761
372,kish,26.5578,54.0194,30.15,79,0,0.0,IR,1696046761
373,baukau,51.5526,7.2042,13.36,88,100,1.79,DE,1696046761
374,kiffa,16.6166,-11.4045,31.21,59,82,5.81,MR,1696046762
375,linares,-35.85,-71.6,9.25,73,0,1.19,CL,1696046521
376,baruun-urt,46.6806,113.2792,12.48,40,7,4.19,MN,1696046762
377,mejit,10.2753,170.8646,28.05,77,79,4.81,MH,1696046762
378,xiongzhou,25.1167,114.3,32.54,58,1,1.57,CN,1696046763
379,monrovia,6.3005,-10.7969,26.87,88,26,1.96,LR,1696046763
380,zhoukou,33.6333,114.6333,25.7,60,92,3.21,CN,1696046763
381,stephenville,32.2207,-98.2023,27.36,52,0,4.12,US,1696046646
382,woolgoolga,-30.1106,153.2007,30.02,66,1,8.8,AU,1696046764
383,pingzhuang,42.0372,119.2889,19.05,22,28,8.09,CN,1696046764
384,al burayqah,30.4062,19.5739,23.4,70,0,2.68,LY,1696046764
385,langepas,61.2544,75.2124,1.68,67,6,4.57,RU,1696046765
386,dumbraveni,46.2333,24.5667,6.49,62,8,1.04,RO,1696046765
387,tanout,14.9709,8.8879,28.93,47,94,4.13,NE,1696046765
388,flying fish cove,-10.4217,105.6791,25.82,78,100,5.14,CX,1696046766
389,farafangana,-22.8167,47.8333,21.29,83,5,3.67,MG,1696046766
390,navolato,24.7672,-107.6944,31.1,84,50,0.9,MX,1696046606
391,quellon,-43.1167,-73.6167,4.98,84,39,1.98,CL,1696046766
392,laela,-8.5667,32.05,17.09,66,20,1.44,TZ,1696046767
393,arteche,12.2645,125.4048,29.54,80,100,3.97,PH,1696046767
394,mwanza,-2.5167,32.9,22.82,61,62,3.03,TZ,1696046767
395,rakops,-21.0167,24.3333,18.38,73,0,2.69,BW,1696046767
396,la paz,-16.5,-68.15,10.88,69,20,5.14,BO,1696046768
397,wajir,1.7471,40.0573,25.98,73,100,4.12,KE,1696046768
398,luderitz,-26.6481,15.1594,13.76,72,3,4.71,NA,1696046768
399,kokhma,56.9349,41.0915,11.95,85,100,2.38,RU,1696046768
400,samara,53.0,50.0,11.58,69,0,3.34,RU,1696046768
401,marsabit,2.3284,37.9899,17.39,83,60,8.64,KE,1696046769
402,flekkefjord,58.2971,6.6607,13.3,89,67,8.67,NO,1696046769
403,bonthe,7.5264,-12.505,25.15,89,99,1.57,SL,1696046628
404,boguchany,58.3814,97.4531,7.74,83,100,3.23,RU,1696046769
405,yaren,-0.5472,166.916,28.96,73,56,3.25,NR,1696046769
406,mahajanga,-15.7167,46.3167,21.01,68,20,2.06,MG,1696046770
407,sal rei,16.1833,-22.9167,26.01,85,96,5.55,CV,1696046770
408,alaca,40.1683,34.8425,13.69,96,40,1.58,TR,1696046770
409,santa maria del oro,25.9333,-105.3667,18.94,42,45,1.38,MX,1696046770
410,muscat,23.6139,58.5922,31.78,47,0,0.81,OM,1696046604
411,havre,49.5833,0.3333,11.87,100,46,2.57,FR,1696046771
412,ar ruways,24.1103,52.7306,31.27,53,0,2.17,AE,1696046771
413,tambo grande,-4.9269,-80.3447,21.78,73,93,3.53,PE,1696046771
414,villa gesell,-37.2639,-56.973,8.36,67,100,5.61,AR,1696046771
415,monte azul,-15.155,-42.8747,20.89,75,8,3.04,BR,1696046772
416,kone,-21.0595,164.8658,24.82,49,1,4.37,NC,1696046608
417,narrabri,-30.3167,149.7833,32.51,23,1,2.24,AU,1696046772
418,taylor,32.3001,-99.8337,26.85,46,0,3.58,US,1696046772
419,almeria,37.1667,-2.3333,15.99,57,7,1.72,ES,1696046773
420,papao,-17.75,-149.55,26.82,84,23,9.15,PF,1696046773
421,dudinka,69.4058,86.1778,-3.54,91,98,7.56,RU,1696046773
422,east london,-33.0153,27.9116,18.52,68,0,2.57,ZA,1696046773
423,san juan,-31.5375,-68.5364,13.86,26,0,2.82,AR,1696046773
424,san fernando,15.0286,120.6898,32.85,66,90,1.83,PH,1696046774
425,colby,39.3958,-101.0524,19.19,67,0,2.57,US,1696046774
426,klaksvik,62.2266,-6.589,8.51,79,100,12.0,FO,1696046658
427,saint-paul,-21.0096,55.2707,26.67,73,0,0.25,RE,1696046774
428,grand falls-windsor,48.9332,-55.6649,8.61,90,95,0.33,CA,1696046774
429,raduzhny,62.0961,77.475,-0.53,79,8,6.09,RU,1696046775
430,cantilan,9.3336,125.9775,29.26,77,44,1.52,PH,1696046775
431,la mira,18.035,-102.3266,27.28,88,15,1.61,MX,1696046775
432,marrakesh,31.6315,-8.0083,23.04,49,0,1.03,MA,1696046775
433,tieli,46.95,128.05,11.88,73,100,3.17,CN,1696046741
434,verkhnevilyuysk,63.4453,120.3167,9.46,66,98,3.33,RU,1696046652
435,nuevo ideal,24.8875,-105.0728,15.8,36,6,1.29,MX,1696046776
436,sussex,41.1834,-74.6663,14.8,94,100,2.06,US,1696046776
437,dijkot,31.2167,72.9833,30.86,31,0,2.61,PK,1696046776
438,greenfield,42.9614,-88.0126,17.43,90,0,1.54,US,1696046776
439,oranjemund,-28.55,16.4333,12.89,93,13,1.12,NA,1696046777
440,rondonopolis,-16.4708,-54.6356,28.71,55,71,1.1,BR,1696046777
441,island harbour,50.724,-1.2758,11.75,93,87,0.74,GB,1696046777
442,brisas de zicatela,15.8369,-97.0419,29.29,61,20,1.03,MX,1696046777
443,laguna,38.421,-121.4238,19.47,75,20,5.14,US,1696046673
444,porto novo,6.4965,2.6036,24.9,93,94,1.38,BJ,1696046778
445,churapcha,62.0025,132.4325,5.71,34,93,1.18,RU,1696046778
446,dongsheng,39.8161,109.9776,13.56,22,0,1.17,CN,1696046778
447,howrah,22.5892,88.3103,28.0,89,75,4.63,IN,1696046623
448,andergrove,-21.0833,149.1833,28.69,67,38,6.01,AU,1696046778
449,dunedin,-45.8742,170.5036,10.45,61,80,9.83,NZ,1696046779
450,mount isa,-20.7333,139.5,31.87,18,1,4.63,AU,1696046779
451,labuan,5.2767,115.2417,29.2,74,20,2.68,MY,1696046779
452,cururupu,-1.8283,-44.8683,22.93,92,12,1.53,BR,1696046779
453,kourou,5.1552,-52.6478,25.03,82,3,4.64,GF,1696046779
454,roma,43.2128,-75.4557,15.53,88,0,1.54,US,1696046771
455,mullsjo,63.7,19.7,8.75,91,98,1.28,SE,1696046780
456,kingston,17.997,-76.7936,28.53,94,20,2.06,JM,1696046727
457,xilin hot,43.9667,116.0333,14.06,34,57,5.09,CN,1696046780
458,constitucion,-35.3333,-72.4167,12.54,76,0,1.4,CL,1696046756
459,sisimiut,66.9395,-53.6735,0.44,78,22,3.1,GL,1696046781
460,yuto,-23.6434,-64.4719,25.25,52,97,0.89,AR,1696046782
461,coahuayana de hidalgo,18.7,-103.6583,26.67,93,90,0.86,MX,1696046613
462,narvik,68.4384,17.4272,11.32,100,100,1.06,NO,1696046614
463,kyzyl-kyya,40.2568,72.1279,17.4,30,23,1.48,KG,1696046782
464,gizo,-8.103,156.8419,27.47,79,96,2.62,SB,1696046783
465,gorom-gorom,14.4439,-0.2361,29.56,48,77,4.18,BF,1696046783
466,ghat,24.9647,10.1728,25.15,33,64,1.73,LY,1696046783
467,tirano,46.2154,10.1679,19.15,100,57,2.44,IT,1696046783
468,saranac lake,44.3295,-74.1313,12.79,91,20,0.0,US,1696046783
469,fuman,37.2273,49.3142,17.72,74,92,0.48,IR,1696046784
470,biltine,14.5333,20.9167,26.47,57,100,1.02,TD,1696046784
471,matsue,35.4722,133.0506,28.0,61,75,5.66,JP,1696046784
472,petrolia,42.8668,-82.1498,13.01,100,100,0.0,CA,1696046540
473,ingeniero guillermo n. juarez,-23.9,-61.85,19.26,38,0,4.45,AR,1696046784
474,nabinagar,23.8917,90.9733,31.07,78,73,5.31,BD,1696046785
475,port blair,11.6667,92.75,29.02,79,75,6.17,IN,1696046785
476,zhicheng,30.2956,111.5047,23.01,79,100,1.34,CN,1696046751
477,maceio,-9.6658,-35.7353,24.69,88,40,1.54,BR,1696046785
478,bodaybo,57.8506,114.1933,12.87,55,96,0.81,RU,1696046785
479,vorkuta,67.5,64.0,0.67,71,100,4.74,RU,1696046786
480,saint-francois,46.4154,3.9054,13.71,100,100,1.54,FR,1696046786
481,phan rang-thap cham,11.5667,108.9833,32.11,60,21,2.2,VN,1696046786
482,alofi,-19.0595,-169.9187,23.94,94,72,4.63,NU,1696046787
483,kaura namoda,12.5898,6.5779,24.49,76,71,2.67,NG,1696046787
484,skikda,36.8762,6.9092,19.9,81,0,1.9,DZ,1696046788
485,tres arroyos,-38.3739,-60.2798,3.32,92,52,3.05,AR,1696046788
486,priargunsk,50.3691,119.1012,12.9,39,23,4.17,RU,1696046788
487,jacksonville,30.3322,-81.6556,24.5,89,0,3.6,US,1696046788
488,huntsville,34.7304,-86.5861,20.64,90,0,2.68,US,1696046789
489,amahai,-3.3333,128.9167,27.74,76,89,4.7,ID,1696046789
490,urucara,-2.5364,-57.76,26.68,44,98,1.52,BR,1696046789
491,lander,42.833,-108.7307,16.45,36,40,3.09,US,1696046789
492,nizhniy odes,63.6445,54.856,3.59,80,71,3.03,RU,1696046790
493,wattegama,6.7989,81.4808,29.91,59,93,5.52,LK,1696046790
494,blackfoot,43.1905,-112.345,14.31,37,26,3.67,US,1696046593
495,riohacha,11.5444,-72.9072,27.17,80,94,2.93,CO,1696046790
496,norilsk,69.3535,88.2027,-3.65,89,78,4.84,RU,1696046790
497,madera acres,37.0191,-120.0668,23.08,60,0,5.14,US,1696046791
498,bandarbeyla,9.4942,50.8122,27.3,77,93,8.59,SO,1696046791
499,grootfontein,-19.5667,18.1167,14.76,26,3,2.06,NA,1696046791
500,arafat,21.3594,39.9664,31.74,24,0,0.55,SA,1696046791
501,erbaa,40.6689,36.5675,14.05,92,89,0.36,TR,1696046791
502,harstad,68.799,16.5293,10.66,97,100,9.83,NO,1696046631
503,at-bashi,41.1702,75.8106,8.13,75,100,0.26,KG,1696046792
504,smara,26.7384,-11.6719,24.0,55,35,1.88,EH,1696046792
505,mende,44.6667,3.5,10.07,98,50,1.55,FR,1696046792
506,gaoping,30.7758,106.1029,22.85,78,84,2.03,CN,1696046731
507,freetown,8.484,-13.2299,24.84,94,75,1.54,SL,1696046793
508,chipata,-13.6333,32.65,19.32,63,8,2.46,ZM,1696046793
509,makinsk,52.6292,70.4169,10.6,67,100,1.25,KZ,1696046793
510,rio grande,-32.035,-52.0986,14.97,92,98,2.59,BR,1696046498
511,manokwari,-0.8667,134.0833,28.67,72,67,1.92,ID,1696046793
512,smithers,54.7804,-127.1743,9.18,71,75,2.57,CA,1696046794
513,battle ground,45.7809,-122.5334,15.04,87,100,0.89,US,1696046794
514,tofol,5.3248,163.0078,27.32,79,100,3.97,FM,1696046618
515,makassar,-5.14,119.4221,33.03,43,20,5.66,ID,1696046794
516,south portland,43.6415,-70.2409,13.94,86,75,0.0,US,1696046794
517,urangan,-25.3,152.9,23.25,53,0,4.83,AU,1696046795
518,aras-asan,8.8908,126.3033,29.66,72,61,2.06,PH,1696046795
519,khandyga,62.6667,135.6,5.64,33,88,1.89,RU,1696046795
520,khanty-mansiysk,61.0042,69.0019,-0.94,86,0,2.0,RU,1696046795
521,kudymkar,59.0173,54.656,8.14,92,62,1.13,RU,1696046638
522,guenange,49.2995,6.2075,14.47,92,38,0.65,FR,1696046796
523,conception bay south,47.4999,-52.9981,9.53,92,100,1.57,CA,1696046796
524,aykhal,66.0,111.5,2.63,99,100,2.01,RU,1696046796
525,huron,41.1501,-82.5499,15.94,64,9,1.68,US,1696046796
526,ciudad lazaro cardenas,17.9583,-102.2,27.97,85,11,1.81,MX,1696046512
527,tateyama,34.9833,139.8667,27.96,71,16,3.83,JP,1696046797
528,bathurst,-33.4166,149.5806,28.87,28,4,0.89,AU,1696046797
529,mahina,-17.5065,-149.489,26.87,69,40,2.06,PF,1696046797
530,mahibadhoo,3.7833,72.9667,28.7,74,75,6.65,MV,1696046797
531,walvis bay,-22.9575,14.5053,11.72,93,0,1.54,NA,1696046797
532,lobujya,27.95,86.8167,2.41,75,100,2.67,NP,1696046798
533,ciudad bolivar,8.1222,-63.5497,27.56,70,89,3.45,VE,1696046798
534,muri,23.3667,85.8667,26.78,85,100,3.42,IN,1696046798
535,enriquillo,17.9,-71.2333,27.3,85,30,3.42,DO,1696046798
536,hammerfest,70.6634,23.6821,8.25,93,100,0.0,NO,1696046798
537,new richmond,45.123,-92.5366,20.87,99,100,4.63,US,1696046799
538,mpika,-11.8343,31.4529,15.32,78,46,1.79,ZM,1696046799
539,manhattan,40.7834,-73.9662,16.12,91,100,5.66,US,1696046681
540,bismarck,46.8083,-100.7837,17.12,70,0,2.06,US,1696046799
541,tazacorte,28.629,-17.9293,21.54,82,0,2.68,ES,1696046799
542,praya,14.9215,-23.5087,25.3,78,0,2.06,CV,1696046666
543,naugachhia,25.4,87.1,27.17,81,100,1.2,IN,1696046800
544,crane,31.3974,-102.3501,27.02,41,58,8.54,US,1696046800
545,imbituba,-28.24,-48.6703,20.48,89,45,4.57,BR,1696046800
546,aksu,41.1231,80.2644,21.08,27,100,1.19,CN,1696046800
547,hirara,24.8,125.2833,31.92,74,40,5.14,JP,1696046800
548,soledade,-28.8183,-52.5103,14.93,98,78,1.29,BR,1696046801
549,kolonia,50.9333,6.95,13.31,91,100,1.03,DE,1696046596
550,quartu sant'elena,39.2419,9.1839,20.0,80,20,3.09,IT,1696046801
551,fisterra,42.9049,-9.2629,16.53,88,6,1.89,ES,1696046801
552,antsiranana,-12.2787,49.2917,24.08,73,24,6.9,MG,1696046801
553,ca mau,9.1769,105.15,29.59,66,90,4.11,VN,1696046802
554,ad darb,17.7229,42.2526,29.89,72,29,1.33,SA,1696046642
555,kermit,31.8576,-103.0927,27.91,39,0,8.23,US,1696046802
556,cabo san lucas,22.8909,-109.9124,30.9,64,27,3.13,MX,1696046802
557,pokaran,26.9167,71.9167,34.28,11,3,2.45,IN,1696046802
558,qoryooley,1.7878,44.53,26.33,77,90,6.77,SO,1696046803
559,kailua-kona,19.6406,-155.9956,27.98,83,40,3.09,US,1696046803
560,mahdia,35.5047,11.0622,22.97,71,0,5.64,TN,1696046803
561,san andres,12.5847,-81.7006,30.01,74,20,3.09,CO,1696046803
562,timimoun,29.2639,0.231,23.96,32,0,6.31,DZ,1696046804
563,thakurgaon,26.0333,88.4667,27.85,83,100,2.2,BD,1696046655
564,yemva,62.59,50.8594,8.11,94,95,2.86,RU,1696046805
565,kralendijk,12.15,-68.2667,29.99,74,90,5.14,BQ,1696046805
566,constantina,36.365,6.6147,11.67,82,0,0.0,DZ,1696046805
567,kindu,-2.95,25.95,20.54,95,100,0.82,CD,1696046805
568,visby,57.6409,18.296,14.12,82,42,8.23,SE,1696046806
569,yoloten,37.2989,62.3597,21.27,26,0,2.5,TM,1696046806
