City_ID,City,Lat,Lng,Max Temp,Humidity,Cloudiness,Wind Speed,Country,Date
0,bintulu,3.1667,113.0333,25.23,94,40,2.24,MY,1696026243
1,kangding,30.0513,101.9603,12.0,93,77,1.15,CN,1696026244
2,bethel,41.3712,-73.414,13.93,90,100,3.6,US,1696025551
3,puerto natales,-51.7236,-72.4875,7.79,74,100,1.08,CL,1696025767
4,villa gesell,-37.2639,-56.973,10.59,70,74,7.58,AR,1696025875
5,taro,-8.3862,115.28,21.03,89,80,0.37,ID,1696026244
6,port elizabeth,-33.918,25.5701,16.72,78,0,2.06,ZA,1696025806
7,lawas,13.764,121.0566,26.05,88,67,2.38,PH,1696026245
8,ushuaia,-54.8,-68.3,9.81,50,0,3.6,AR,1696025747
9,stanley,54.868,-1.6985,10.99,89,0,3.09,GB,1696025813
10,olonkinbyen,70.9221,-8.7187,2.58,82,100,6.52,SJ,1696025492
11,inari,68.906,27.0288,10.11,96,96,1.63,FI,1696026246
12,hasaki,35.7333,140.8333,25.16,76,29,5.84,JP,1696025860
13,stettler,52.3168,-112.7186,8.86,87,99,3.6,CA,1696026246
14,iqaluit,63.7506,-68.5145,1.85,87,100,6.17,CA,1696025759
15,utrik,11.2278,169.8474,28.81,77,92,7.12,MH,1696025772
16,vernon,50.2581,-119.2691,15.34,64,100,0.51,CA,1696025951
17,arraial do cabo,-22.9661,-42.0278,20.92,83,75,5.14,BR,1696025761
18,bredasdorp,-34.5322,20.0403,13.73,88,79,4.45,ZA,1696025762
19,punta arenas,-53.15,-70.9167,9.06,57,0,3.6,CL,1696025695
20,invercargill,-46.4,168.35,7.23,77,75,7.15,NZ,1696025752
21,trairi,-3.2778,-39.2689,25.25,78,63,5.13,BR,1696026184
22,albany,42.6001,-73.9662,15.36,91,100,0.45,US,1696025719
23,sao gabriel da cachoeira,-0.1303,-67.0892,31.35,57,89,1.18,BR,1696026248
24,kantunilkin,21.0917,-87.45,30.02,67,96,1.3,MX,1696026248
25,nadi,-17.8,177.4167,26.0,57,20,6.17,FJ,1696026249
26,betio village,1.358,172.9211,30.02,69,100,3.2,KI,1696026249
27,quatre cocos,-20.2078,57.7625,23.06,82,26,4.15,MU,1696026249
28,adamstown,-25.066,-130.1015,20.62,82,25,10.37,PN,1696025742
29,hamilton,39.1834,-84.5333,26.16,65,0,0.45,US,1696025660
30,slyudyanka,51.6594,103.7061,5.9,81,35,2.51,RU,1696026249
31,fort mcmurray,56.7268,-111.381,9.77,71,100,4.63,CA,1696025729
32,vadso,70.0744,29.7487,9.49,93,0,4.12,NO,1696025743
33,grytviken,-54.2811,-36.5092,-1.69,84,18,4.27,GS,1696025762
34,alice springs,-23.7,133.8833,14.75,36,40,2.06,AU,1696025582
35,carnarvon,-24.8667,113.6333,18.56,76,2,10.21,AU,1696025820
36,pemba,-12.974,40.5178,25.39,94,40,2.06,MZ,1696026251
37,port-aux-francais,-49.35,70.2167,1.01,71,10,19.19,TF,1696025762
38,ratnapura,6.6828,80.3992,23.68,95,99,0.47,LK,1696026251
39,port lincoln,-34.7333,135.8667,20.74,30,0,7.72,AU,1696025776
40,edinburgh of the seven seas,-37.0676,-12.3116,10.39,86,100,15.8,SH,1696025754
41,lebu,-37.6167,-73.65,12.62,79,0,5.59,CL,1696025506
42,portland,45.5234,-122.6762,17.33,78,100,3.6,US,1696025790
43,san patricio,28.017,-97.5169,35.1,49,23,6.63,US,1696025764
44,blackmans bay,-43.0167,147.3167,11.96,74,94,1.93,AU,1696025765
45,bilibino,68.0546,166.4372,-5.22,94,100,2.72,RU,1696025750
46,vilyuchinsk,52.9306,158.4028,4.15,58,100,0.65,RU,1696025800
47,la passe,45.5549,-0.8967,20.13,91,100,1.98,FR,1696025845
48,east london,-33.0153,27.9116,21.81,59,100,3.06,ZA,1696025743
49,waitangi,-43.9535,-176.5597,11.01,85,100,3.58,NZ,1696025753
50,aasiaat,68.7098,-52.8699,-0.75,90,97,1.74,GL,1696025784
51,nordenham,53.5,8.4833,13.45,97,0,4.7,DE,1696026253
52,sitka,57.0531,-135.33,10.94,76,75,0.0,US,1696025837
53,porto torres,40.835,8.3972,18.1,85,0,0.58,IT,1696026254
54,kalemie,-5.9475,29.1947,23.8,68,96,1.3,CD,1696026254
55,susuman,62.7833,148.1667,-3.86,80,75,1.88,RU,1696025755
56,mahina,-17.5065,-149.489,27.87,65,20,4.12,PF,1696025768
57,yellowknife,62.456,-114.3525,8.01,68,75,2.57,CA,1696025765
58,tiksi,71.6872,128.8694,-1.78,87,100,6.26,RU,1696025741
59,kodiak,57.79,-152.4072,10.73,82,40,2.06,US,1696025811
60,tarawa,1.419,172.984,30.05,70,75,2.06,KI,1696026255
61,avarua,-21.2078,-159.775,26.03,83,75,6.17,CK,1696025784
62,st. john's,47.5649,-52.7093,11.82,82,75,1.03,CA,1696025558
63,saint-benoit,-21.038,55.7194,23.04,75,23,3.32,RE,1696026255
64,afaahiti,-17.75,-149.2833,26.93,85,31,8.36,PF,1696025843
65,cassilandia,-19.1133,-51.7342,32.24,33,85,2.1,BR,1696026256
66,college,64.8569,-147.8028,5.81,55,75,0.45,US,1696025763
67,udachny,66.4167,112.4,1.92,93,100,4.38,RU,1696025792
68,manturovo,58.3353,44.7619,9.48,95,92,1.58,RU,1696026256
69,wailua homesteads,22.0669,-159.378,29.24,72,40,5.14,US,1696025780
70,whitehorse,60.7161,-135.0538,8.43,86,75,3.58,CA,1696025797
71,uturoa,-16.7333,-151.4333,25.66,78,76,8.4,PF,1696025754
72,sao vicente,-23.9631,-46.3919,21.26,85,94,3.94,BR,1696026022
73,haiku-pauwela,20.9219,-156.3051,31.01,51,20,9.26,US,1696025771
74,fale old settlement,-9.3852,-171.2468,28.39,74,31,5.85,TK,1696025828
75,lihue,21.9789,-159.3672,29.58,72,40,5.14,US,1696025783
76,changde,29.0464,111.6783,21.3,75,93,1.8,CN,1696026258
77,margaret river,-33.95,115.0667,14.48,78,49,7.58,AU,1696025778
78,inhambane,-23.865,35.3833,22.72,93,6,3.9,MZ,1696025842
79,nuuk,64.1835,-51.7216,2.34,93,75,5.66,GL,1696025568
80,basco,20.4487,121.9702,28.88,81,47,6.84,PH,1696026258
81,flekkefjord,58.2971,6.6607,14.97,89,37,6.77,NO,1696026259
82,jamestown,42.097,-79.2353,19.77,77,75,0.0,US,1696025745
83,georgetown,5.4112,100.3354,28.3,93,20,1.03,MY,1696025709
84,crane,31.3974,-102.3501,33.66,29,0,8.9,US,1696025833
85,khorinsk,52.1657,109.7726,3.76,87,0,0.61,RU,1696026259
86,tevriz,57.509,72.4042,9.49,92,100,1.57,RU,1696026260
87,kainantu,-6.2887,145.8655,19.09,65,61,0.37,PG,1696026260
88,labrador city,52.9463,-66.9114,10.95,66,75,2.06,CA,1696025712
89,klerksdorp,-26.8521,26.6667,16.86,40,0,4.03,ZA,1696026260
90,xingcheng,40.6167,120.7167,14.46,49,0,5.12,CN,1696026260
91,west island,-12.1568,96.8225,24.99,78,75,6.17,CC,1696025753
92,darya khan marri,26.6775,68.2859,29.89,13,21,3.75,PK,1696026261
93,hermanus,-34.4187,19.2345,15.53,83,87,8.83,ZA,1696025564
94,constantia,44.1833,28.65,18.38,66,9,7.42,RO,1696025797
95,prince rupert,54.3161,-130.3201,12.83,81,0,5.14,CA,1696026009
96,kourou,5.1552,-52.6478,29.03,78,10,5.57,GF,1696026261
97,island harbour,50.724,-1.2758,13.97,92,99,2.56,GB,1696026262
98,prince george,53.9166,-122.753,11.69,76,100,1.54,CA,1696025633
99,opuwo,-18.0607,13.84,20.39,44,4,2.33,NA,1696025805
100,mahanoro,-19.9,48.8,21.12,84,43,1.83,MG,1696026262
101,fort bragg,35.139,-79.006,23.79,71,40,2.57,US,1696025840
102,longyearbyen,78.2186,15.6401,-1.09,74,75,1.54,SJ,1696025760
103,puerto baquerizo moreno,-0.9,-89.6,25.55,73,75,4.63,EC,1696025789
104,melfort,52.8667,-104.6177,18.05,38,93,3.16,CA,1696026263
105,thompson,55.7435,-97.8558,13.09,71,75,2.06,CA,1696025819
106,berdigestyakh,62.0989,126.6992,-2.09,61,74,1.78,RU,1696026263
107,newman,37.3138,-121.0208,30.13,42,5,2.24,US,1696025873
108,ilulissat,69.2167,-51.1,0.01,86,100,0.0,GL,1696025780
109,mar del plata,-38.0023,-57.5575,8.94,92,100,1.79,AR,1696025522
110,petropavlovsk-kamchatsky,53.0452,158.6483,3.33,87,0,3.0,RU,1696025741
111,gadzhiyevo,69.2551,33.3362,10.19,93,100,5.49,RU,1696025808
112,sao jose da coroa grande,-8.8978,-35.1478,25.38,74,88,4.17,BR,1696025817
113,arno,60.1167,18.6333,14.32,90,99,4.1,SE,1696026264
114,tarko-sale,64.9225,77.785,-1.11,78,28,8.49,RU,1696026265
115,miri,4.4148,114.0089,25.08,94,40,0.51,MY,1696026265
116,askoy,60.4092,5.226,13.16,94,75,8.23,NO,1696025774
117,suntar,62.1444,117.6319,5.56,84,91,2.22,RU,1696026265
118,mawlaik,23.6333,94.4167,24.22,99,100,0.2,MM,1696026266
119,geraldton,-28.7667,114.6,9.23,93,0,3.6,AU,1696025527
120,juiz de fora,-21.7642,-43.3503,16.39,88,68,1.72,BR,1696026266
121,jiuquan,39.7432,98.5174,8.77,32,1,1.38,CN,1696026266
122,puerto cortez,15.8333,-87.95,33.19,75,88,2.33,HN,1696026267
123,port mathurin,-19.6833,63.4167,22.77,65,62,7.89,MU,1696025828
124,estacion santa engracia,24.0159,-99.2015,35.06,30,0,1.79,MX,1696026267
125,walvis bay,-22.9575,14.5053,12.27,86,1,2.67,NA,1696025832
126,zhumysker,49.3333,49.4,15.99,51,57,3.54,KZ,1696026268
127,flying fish cove,-10.4217,105.6791,23.82,94,100,3.6,CX,1696025796
128,buala,-8.145,159.5921,27.82,81,88,4.24,SB,1696026268
129,acarau,-2.8856,-40.12,25.66,79,100,7.97,BR,1696026268
130,las tablas,7.7667,-80.2833,29.77,71,61,1.57,PA,1696026268
131,papatowai,-46.5619,169.4708,6.95,61,97,9.5,NZ,1696025773
132,concepcion del oro,24.6333,-101.4167,24.85,19,0,2.32,MX,1696026269
133,northam,51.0333,-4.2167,13.7,93,100,2.74,GB,1696025997
134,puerto san jose,13.9256,-90.8244,30.22,70,45,2.45,GT,1696026269
135,peniche,39.3558,-9.3811,21.71,87,3,6.39,PT,1696026269
136,sayansk,54.1088,102.1648,6.08,79,100,0.9,RU,1696026270
137,nar'yan-mar,67.6713,53.087,2.17,77,99,7.23,RU,1696025750
138,klyuchi,52.2667,79.1667,10.23,71,59,1.3,RU,1696025792
139,atafu village,-8.5421,-172.5159,28.65,71,22,4.23,TK,1696025756
140,baotou,40.6522,109.8222,9.29,36,0,1.45,CN,1696026270
141,talnakh,69.4865,88.3972,-3.77,85,100,5.61,RU,1696025758
142,barra do bugres,-15.0725,-57.1811,31.63,46,94,1.51,BR,1696026271
143,turbat,26.0023,63.044,29.59,11,0,10.45,PK,1696026271
144,yanam,16.7333,82.2167,25.32,95,98,2.14,IN,1696026271
145,dudinka,69.4058,86.1778,-3.54,94,94,8.83,RU,1696025810
146,belidzhi,41.8918,48.4125,17.96,75,100,1.2,RU,1696026272
147,gamay,12.3854,125.2979,25.54,94,100,2.88,PH,1696026272
148,nuevitas,21.5453,-77.2644,28.42,79,36,4.44,CU,1696026272
149,vorgashor,67.5833,63.95,-0.19,78,97,1.83,RU,1696025819
150,sandnessjoen,66.0217,12.6316,11.06,93,75,1.03,NO,1696026248
151,coral springs,26.2712,-80.2706,29.43,80,0,3.09,US,1696026011
152,bairnsdale,-37.8333,147.6167,20.2,32,5,2.82,AU,1696026273
153,castillos,-34.1667,-53.8333,13.62,93,96,1.8,UY,1696026273
154,gizo,-8.103,156.8419,27.36,79,93,2.61,SB,1696025858
155,sosnovka,56.255,51.2842,7.69,96,97,1.99,RU,1696026273
156,bardai,11.65,7.2333,21.91,89,45,3.65,NG,1696025752
157,kenai,60.5544,-151.2583,11.05,54,0,3.6,US,1696026274
158,balaipungut,1.05,101.2833,23.59,81,86,1.04,ID,1696026274
159,ondjiva,-17.0667,15.7333,27.02,21,49,1.54,AO,1696026274
160,jinghong,21.991,100.7341,21.75,99,95,0.15,CN,1696026274
161,hawaiian paradise park,19.5933,-154.9731,28.91,74,20,2.57,US,1696025750
162,grand falls-windsor,48.9332,-55.6649,11.75,81,97,1.44,CA,1696026275
163,vila franca do campo,37.7167,-25.4333,23.23,99,94,6.39,PT,1696025873
164,baiyin,36.5583,104.2081,13.99,68,77,1.79,CN,1696026275
165,nema,57.5067,50.5011,7.29,94,57,2.09,RU,1696026275
166,priozersk,61.0393,30.1291,15.56,91,100,4.83,RU,1696026275
167,qaqortoq,60.7167,-46.0333,3.21,67,3,1.18,GL,1696025757
168,enewetak,11.3474,162.3373,28.88,77,86,5.94,MH,1696025790
169,cururupu,-1.8283,-44.8683,25.17,81,73,2.03,BR,1696026276
170,zhaodong,46.0833,125.9833,10.42,82,100,7.81,CN,1696026276
171,ar rahad,12.7167,30.65,29.19,48,7,1.93,SD,1696026276
172,mount pearl,47.5166,-52.7813,11.36,82,75,1.03,CA,1696025700
173,ribeira grande,38.5167,-28.7,19.87,94,100,1.79,PT,1696025741
174,evergreen,39.6333,-105.3172,26.17,26,8,1.34,US,1696026277
175,westerland,54.9079,8.3033,16.01,67,40,8.75,DE,1696026277
176,businga,3.3333,20.8833,21.36,99,100,1.22,CD,1696026277
177,alofi,-19.0595,-169.9187,23.94,94,72,4.63,NU,1696025804
178,bay roberts,47.5999,-53.2648,12.03,87,93,0.45,CA,1696026278
179,anadyr,64.75,177.4833,6.28,81,75,5.0,RU,1696025769
180,swakopmund,-22.6833,14.5333,12.21,88,14,1.79,NA,1696026278
181,antsiranana,-12.2787,49.2917,23.03,78,23,7.45,MG,1696025771
182,qusmuryn,52.4503,64.6311,11.93,66,100,3.76,KZ,1696026279
183,turpan,42.9333,89.1667,22.61,22,100,0.85,CN,1696026279
184,oberlin,41.2939,-82.2174,21.42,81,0,2.57,US,1696026279
185,ciudad lazaro cardenas,17.9583,-102.2,30.56,75,35,4.84,MX,1696026280
186,acajutla,13.5928,-89.8275,29.92,72,63,2.2,SV,1696025844
187,beau vallon,-20.4189,57.6953,23.13,83,75,6.17,MU,1696025803
188,puerto ayora,-0.7393,-90.3518,26.98,90,45,2.68,EC,1696025803
189,mana,5.6592,-53.7767,27.66,79,33,6.67,GF,1696025757
190,nuku'alofa,-21.1333,-175.2,24.19,60,20,4.63,TO,1696025589
191,kavaratti,10.5669,72.642,27.38,82,77,8.36,IN,1696025844
192,egilsstadir,65.2653,-14.3948,4.95,87,100,1.03,IS,1696025787
193,al jawf,29.5,38.75,25.85,19,0,4.45,SA,1696026281
194,new norfolk,-42.7826,147.0587,12.62,59,100,2.2,AU,1696025764
195,cuatro cienegas de carranza,26.9833,-102.0833,33.06,25,0,4.55,MX,1696026281
196,cabo san lucas,22.8909,-109.9124,35.34,52,20,5.14,MX,1696025492
197,howrah,22.5892,88.3103,26.0,94,75,2.06,IN,1696025796
198,tralee,52.2704,-9.7026,10.88,90,100,2.25,IE,1696025801
199,lompoc,34.6391,-120.4579,27.23,76,100,8.05,US,1696025583
200,cabedelo,-6.9811,-34.8339,25.37,72,85,6.47,BR,1696025803
201,cidreira,-30.1811,-50.2056,18.22,86,71,8.82,BR,1696025786
202,kapuskasing,49.4169,-82.4331,23.0,38,75,4.12,CA,1696025772
203,polyarnyy,69.1989,33.4478,10.3,93,100,5.1,RU,1696025753
204,porto novo,6.4965,2.6036,24.9,89,97,2.07,BJ,1696026008
205,quellon,-43.1167,-73.6167,9.18,68,20,3.53,CL,1696025813
206,pangody,65.85,74.4859,-1.03,94,18,5.4,RU,1696026283
207,badger,64.8,-147.5333,5.76,56,75,0.0,US,1696025759
208,chonchi,-42.6128,-73.8092,12.56,71,5,1.03,CL,1696026284
209,aral,40.5156,81.2636,18.48,29,100,2.26,CN,1696026284
210,babura,12.7731,9.0158,27.96,58,64,3.94,NG,1696026284
211,creswell,43.9179,-123.0245,15.71,90,100,1.23,US,1696026284
212,carolina beach,34.0352,-77.8936,24.48,78,7,0.89,US,1696026284
213,jackson,42.4165,-122.8345,21.44,60,75,2.57,US,1696026109
214,dongcun,36.7767,121.1597,15.9,94,0,2.97,CN,1696026285
215,slave lake,55.2834,-114.769,9.99,71,100,2.57,CA,1696025835
216,champerico,14.3,-91.9167,33.3,68,100,2.8,GT,1696026285
217,san pedro,14.35,121.0167,27.57,93,75,1.79,PH,1696026285
218,ambon,-3.6954,128.1814,27.71,95,75,2.06,ID,1696026286
219,celanova,42.153,-7.9551,18.22,58,0,0.76,ES,1696026286
220,kerikeri,-35.2268,173.9474,13.28,84,74,2.24,NZ,1696026286
221,guerrero negro,27.9769,-114.0611,22.92,61,2,7.06,MX,1696026286
222,fort st. john,56.2499,-120.8529,8.94,87,75,1.54,CA,1696026286
223,yatou,37.15,122.3833,16.12,85,26,3.38,CN,1696026287
224,jayapura,-2.5333,140.7,26.66,78,44,1.6,ID,1696025793
225,eraan,9.0629,117.7016,26.01,90,91,3.77,PH,1696026287
226,sitia,35.2,26.0986,23.32,78,14,4.92,GR,1696026287
227,ujae,8.9322,165.7642,28.54,79,87,5.75,MH,1696026288
228,christchurch,-43.5333,172.6333,10.23,62,20,12.86,NZ,1696026038
229,bentiu,9.2333,29.8333,24.42,79,9,0.38,SS,1696026289
230,chongjin,41.7956,129.7758,14.63,64,43,1.45,KP,1696026289
231,corinto,37.9407,22.9573,19.94,63,44,1.95,GR,1696026290
232,mae hong son,19.3003,97.9685,24.08,100,75,1.03,TH,1696026290
233,boguchany,58.3814,97.4531,7.64,84,100,4.32,RU,1696026290
234,lorengau,-2.0226,147.2712,27.77,82,41,3.53,PG,1696025808
235,springbok,-29.6643,17.8865,12.99,54,98,2.18,ZA,1696026291
236,hadibu,12.65,54.0333,26.81,80,95,2.55,YE,1696025749
237,beyneu,45.3167,55.2,15.67,41,7,2.86,KZ,1696026291
238,majuro,7.0897,171.3803,28.98,79,100,2.06,MH,1696026291
239,aykhal,66.0,111.5,2.38,98,100,4.44,RU,1696025765
240,puerto cabezas,14.0351,-83.3888,30.98,79,40,3.09,NI,1696026125
241,tura,25.5198,90.2201,23.84,95,100,1.87,IN,1696025807
242,kitsuki,33.4167,131.6167,21.89,88,75,1.54,JP,1696026292
243,salinas,36.6777,-121.6555,25.0,76,75,6.69,US,1696026292
244,nantucket,41.2835,-70.0995,17.23,99,100,6.69,US,1696025573
245,masterton,-40.9597,175.6575,7.16,97,100,5.01,NZ,1696025831
246,kaspiyskiy,45.3929,47.3707,17.49,67,1,2.45,RU,1696026293
247,tazovsky,67.4667,78.7,-2.3,86,13,7.67,RU,1696025784
248,manta,-0.95,-80.7333,24.88,73,75,5.14,EC,1696026293
249,pacific grove,36.6177,-121.9166,23.64,85,75,6.69,US,1696026183
250,bayramaly,37.6185,62.1671,14.86,35,0,2.41,TM,1696026294
251,xianning,29.8833,114.2167,21.5,86,85,1.38,CN,1696026294
252,revda,56.801,59.9303,8.07,98,100,1.87,RU,1696025806
253,timbuktu,16.7735,-3.0074,36.06,15,54,3.24,ML,1696026294
254,saipan,15.1355,145.701,29.39,84,0,2.57,MP,1696025780
255,kristiansund,63.1115,7.732,11.36,100,75,1.54,NO,1696026294
256,tocopilla,-22.092,-70.1979,19.4,68,21,4.18,CL,1696025872
257,huarmey,-10.0681,-78.1522,20.87,81,53,4.7,PE,1696025800
258,rodino,52.5,80.25,11.15,76,99,1.31,RU,1696026295
259,januaria,-15.4833,-44.3667,29.73,38,39,0.73,BR,1696026296
260,kem',64.9555,34.5793,13.42,95,100,4.39,RU,1696026296
261,nagqu,31.5,92.0,1.4,90,79,1.7,CN,1696026296
262,tolanaro,-25.0319,46.9987,20.27,91,1,4.26,MG,1696025821
263,malyye derbety,47.9547,44.6808,17.07,36,1,2.03,RU,1696026296
264,saint-francois,46.4154,3.9054,15.93,94,100,0.0,FR,1696026297
265,kudahuvadhoo,2.6708,72.8944,28.32,75,100,6.33,MV,1696026297
266,marion,39.7684,-86.1555,25.69,59,75,3.6,US,1696026297
267,ulsteinvik,62.3432,5.8487,14.31,83,95,4.47,NO,1696025863
268,fethiye,36.6217,29.1164,21.93,75,0,1.04,TR,1696026297
269,la punta,-33.1837,-66.3127,16.23,28,66,7.32,AR,1696026298
270,valparaiso,-33.0393,-71.6273,21.13,53,0,3.6,CL,1696025870
271,lysianka,49.2523,30.8295,15.01,52,0,2.84,UA,1696026298
272,loiza,18.4313,-65.8802,30.99,78,40,4.63,PR,1696026298
273,rio grande,-32.035,-52.0986,18.3,88,96,4.75,BR,1696025857
274,lewistown,40.5992,-77.5714,19.67,90,100,0.0,US,1696026299
275,baikonur,45.6167,63.3167,16.75,39,100,3.62,KZ,1696026299
276,port alfred,-33.5906,26.891,19.23,63,86,3.47,ZA,1696025786
277,sovetskaya gavan',48.9723,140.2878,13.01,63,100,3.26,RU,1696026199
278,shiprock,36.7855,-108.687,30.67,13,0,1.2,US,1696026299
279,villa hernandarias,-31.231,-59.985,18.47,39,31,3.82,AR,1696026299
280,gaoual,11.75,-13.2,25.42,91,99,0.76,GN,1696026300
281,strezhevoy,60.7333,77.5889,-0.58,83,22,4.47,RU,1696026300
282,alaghsas,17.0187,8.0168,33.57,13,4,5.28,NE,1696026300
283,wellington,-41.2866,174.7756,8.81,83,100,12.86,NZ,1696026300
284,prineville,44.2999,-120.8345,11.92,86,100,0.0,US,1696026300
285,vilyuysk,63.7553,121.6247,3.61,88,99,3.04,RU,1696025743
286,san antonio de pale,-1.4014,5.6325,24.76,85,46,4.43,GQ,1696025782
287,sishui,35.6489,117.2758,15.0,93,0,0.82,CN,1696026301
288,hailey,43.5196,-114.3153,20.0,28,0,4.63,US,1696026301
289,mthatha,-31.5889,28.7844,17.31,77,48,0.0,ZA,1696026301
290,usinsk,65.9939,57.5281,-0.15,82,83,3.49,RU,1696025853
291,whakatane,-37.9585,176.9854,14.17,85,97,0.45,NZ,1696025742
292,amungan,15.3652,119.9582,26.82,84,89,1.47,PH,1696026302
293,cill airne,52.05,-9.5167,10.63,93,100,1.74,IE,1696026302
294,waingapu,-9.6567,120.2641,23.4,83,48,2.47,ID,1696026302
295,minas de marcona,-15.2119,-75.1103,16.02,76,22,7.1,PE,1696025788
296,jumla,29.2747,82.1838,12.0,78,5,1.82,NP,1696026303
297,mount isa,-20.7333,139.5,24.87,33,0,6.69,AU,1696025738
298,callao,-12.0667,-77.15,23.73,77,20,4.12,PE,1696025466
299,bridgewater,44.3835,-64.5155,15.82,92,85,1.54,CA,1696026303
300,as sulayyil,20.4607,45.5779,28.06,12,0,2.45,SA,1696026303
301,chabahar,25.2919,60.643,28.11,60,0,3.38,IR,1696026304
302,bakchar,57.0186,82.0711,4.73,97,29,2.48,RU,1696025848
303,yerofey pavlovich,53.9667,121.9667,1.35,90,64,1.72,RU,1696025805
304,isafjordur,66.0755,-23.124,3.65,86,100,2.72,IS,1696025771
305,iskateley,67.6803,53.1512,2.05,77,99,7.2,RU,1696025775
306,ghormach,35.7306,63.7826,15.84,33,1,1.54,AF,1696026304
307,saint-joseph,-21.3667,55.6167,20.26,75,27,3.57,RE,1696026305
308,slinger,43.3336,-88.2862,22.49,73,9,1.79,US,1696026305
309,san antonio,29.4241,-98.4936,36.66,35,40,5.14,US,1696026178
310,antonio enes,-16.2325,39.9086,23.68,85,10,3.91,MZ,1696026305
311,nago,26.5881,127.9761,28.47,87,8,2.06,JP,1696026305
312,kotido,2.9806,34.1331,24.55,46,33,2.77,UG,1696026306
313,tupiza,-21.45,-65.7167,18.07,36,1,6.33,BO,1696025827
314,nouadhibou,20.931,-17.0347,22.69,79,43,9.53,MR,1696026306
315,angaur state,6.906,134.13,28.06,81,56,8.15,PW,1696025783
316,cannonvale,-20.2833,148.7,23.66,72,16,5.86,AU,1696026306
317,anzio,41.4853,12.6179,21.74,71,2,3.2,IT,1696026307
318,las palmas,28.4204,-14.0131,23.44,65,0,2.06,ES,1696026307
319,arica,-18.475,-70.3042,19.75,77,100,4.63,CL,1696026308
320,shakhovskaya,56.0283,35.5097,12.58,83,86,3.41,RU,1696026308
321,tan-tan,28.438,-11.1032,22.4,79,1,2.54,MA,1696026308
322,hithadhoo,-0.6,73.0833,27.75,78,4,6.63,MV,1696025844
323,ancud,-41.8697,-73.8203,10.89,70,0,0.72,CL,1696025766
324,ust'-barguzin,53.45,108.9833,5.9,86,8,1.68,RU,1696026309
325,kambove,-10.8764,26.5969,23.15,46,61,0.6,CD,1696026309
326,codrington,-38.2667,141.9667,15.62,55,53,6.0,AU,1696025877
327,princeville,45.7668,-61.2985,14.88,87,0,0.0,CA,1696025846
328,dhuusamarreeb,5.535,46.3861,25.52,79,15,7.9,SO,1696026309
329,vikhorevka,56.1201,101.1636,7.77,92,100,2.19,RU,1696026309
330,kyren,51.6828,102.1408,4.9,71,82,1.28,RU,1696026310
331,gonabad,34.3529,58.6837,15.16,33,0,4.3,IR,1696026310
332,richards bay,-28.783,32.0377,22.08,81,0,3.21,ZA,1696026310
333,waycross,31.2136,-82.354,28.14,72,40,2.06,US,1696026143
334,machalpur,24.1333,76.3,23.56,60,33,1.77,IN,1696026311
335,constitucion,-35.3333,-72.4167,14.92,71,0,4.89,CL,1696026311
336,ust-nera,64.5667,143.2,-4.51,83,16,1.18,RU,1696025766
337,nikolayevsk-on-amure,53.1406,140.73,9.48,90,100,0.87,RU,1696026312
338,naze,28.3667,129.4833,25.02,85,22,0.48,JP,1696025540
339,daru,-9.0763,143.2092,25.23,83,92,7.92,PG,1696026313
340,fortuna,40.5982,-124.1573,18.7,86,75,0.0,US,1696026314
341,shaydon,40.6747,70.346,17.17,35,99,2.18,TJ,1696026314
342,kuytun,54.3419,101.5036,6.72,78,100,2.91,RU,1696026314
343,valle de la pascua,9.2155,-66.0073,31.6,52,82,0.17,VE,1696026314
344,karoi,-16.8099,29.6925,21.78,49,44,2.77,ZW,1696026315
345,kivioli,59.3531,26.9711,15.08,91,100,3.19,EE,1696026315
346,port saint john's,-31.6229,29.5448,22.14,64,24,3.22,ZA,1696026315
347,tougue,11.4667,-11.6,20.21,95,91,0.32,GN,1696025881
348,la ronge,55.1001,-105.2842,12.14,76,100,1.03,CA,1696025809
349,fangshan,39.6983,115.9925,14.85,48,0,2.43,CN,1696026316
350,coquimbo,-29.9533,-71.3436,13.85,88,75,5.14,CL,1696025596
351,choibalsan,48.0667,114.5,5.15,75,16,4.23,MN,1696026316
352,i-n-salah,27.1935,2.4607,30.14,26,0,11.64,DZ,1696026316
353,remire-montjoly,4.9167,-52.2667,29.02,74,0,3.09,GF,1696025795
354,yeppoon,-23.1333,150.7333,22.88,77,10,4.44,AU,1696025819
355,sri dungargarh,28.0833,74.0167,29.12,29,21,4.68,IN,1696026317
356,sechura,-5.5569,-80.8222,24.69,64,88,7.96,PE,1696026317
357,wynyard,-41.0,145.7167,13.09,80,51,1.57,AU,1696025816
358,cahors,44.4167,1.3333,17.93,83,17,1.96,FR,1696026317
359,puerto escondido,15.85,-97.0667,31.46,58,20,2.57,MX,1696026318
360,al ghayzah,16.2079,52.176,26.03,85,2,1.48,YE,1696026318
361,katsuren-haebaru,26.3369,127.8719,28.43,94,20,0.0,JP,1696026124
362,ximeicun,24.9639,118.3794,24.03,92,0,1.35,CN,1696026318
363,karratha,-20.7377,116.8463,25.71,31,31,4.61,AU,1696026318
364,la'ie,21.6477,-157.9253,31.98,74,99,2.68,US,1696025695
365,bodo,67.28,14.405,11.02,98,75,3.09,NO,1696025796
366,preobrazheniye,42.9019,133.9064,15.01,71,23,1.05,RU,1696025763
367,sanchor,24.7553,71.7722,28.23,56,12,2.1,IN,1696026319
368,happy valley-goose bay,53.3168,-60.3315,15.17,58,75,0.0,CA,1696025709
369,sampang,-7.1872,113.2394,25.84,71,58,3.89,ID,1696026319
370,sittwe,20.15,92.9,25.78,91,100,4.75,MM,1696025857
371,pointe aux piments,-20.0628,57.5131,23.31,75,9,5.65,MU,1696026320
372,illizi,26.4833,8.4667,28.89,26,100,6.43,DZ,1696025643
373,palmer,42.1584,-72.3287,12.41,82,100,3.09,US,1696025569
374,pierre,44.3683,-100.351,25.51,52,0,2.57,US,1696026040
375,kapa'a,22.0752,-159.319,29.99,71,40,5.14,US,1696025593
376,rawson,-43.3002,-65.1023,11.37,43,0,5.99,AR,1696026321
377,kununurra,-15.7667,128.7333,23.99,73,78,2.06,AU,1696025841
378,mersing,2.4312,103.8405,23.95,94,20,1.54,MY,1696025859
379,sidney,-33.8679,151.2073,20.75,84,40,4.12,AU,1696026279
380,holualoa,19.6228,-155.9522,28.91,66,20,7.2,US,1696025784
381,posse,-14.0931,-46.3694,26.22,54,67,1.34,BR,1696026321
382,sambava,-14.2667,50.1667,21.88,87,55,3.9,MG,1696026096
383,zyryanskoye,56.8306,86.6258,7.04,90,76,3.61,RU,1696025875
384,lijiang,26.8688,100.2207,12.51,96,44,0.75,CN,1696026322
385,dingwall,57.5953,-4.4272,12.26,84,68,5.93,GB,1696026322
386,dunedin,-45.8742,170.5036,7.11,69,85,5.81,NZ,1696025605
387,arar,30.9753,41.0381,25.01,16,0,2.06,SA,1696026323
388,rundu,-17.9333,19.7667,21.55,15,13,2.45,NA,1696026323
389,celestun,20.8667,-90.4,29.1,74,63,3.82,MX,1696026323
390,al hilaliyya,14.9398,33.234,31.24,43,21,3.28,SD,1696025773
391,itaituba,-4.2761,-55.9836,34.51,28,68,1.0,BR,1696026323
392,prieska,-29.6641,22.7474,22.36,12,99,2.96,ZA,1696026324
393,roxas,11.5853,122.7511,24.52,88,81,1.7,PH,1696026265
394,ouallam,14.3188,2.0866,30.59,48,43,4.02,NE,1696026324
395,bubaque,11.2833,-15.8333,28.29,78,48,4.29,GW,1696026324
396,healesville,-37.65,145.5167,20.75,39,13,2.42,AU,1696026324
397,pauini,-7.7136,-66.9764,24.61,84,99,2.44,BR,1696026325
398,novoishimskiy,53.1981,66.7694,10.26,81,100,2.45,KZ,1696026325
399,oppdal,62.5943,9.6912,7.01,92,42,0.22,NO,1696026325
400,homer,59.6425,-151.5483,11.93,67,0,1.54,US,1696026325
401,floro,61.5996,5.0328,11.98,94,100,10.29,NO,1696026326
402,okhotsk,59.3833,143.3,7.33,85,100,1.82,RU,1696025827
403,warangal,18.0,79.5833,23.86,95,100,2.89,IN,1696026326
404,alexandria,31.2156,29.9553,26.03,64,3,2.75,EG,1696026047
405,tsiroanomandidy,-18.7667,46.0333,19.89,47,26,1.2,MG,1696026326
406,natal,-5.795,-35.2094,26.12,83,40,3.6,BR,1696026186
407,tchibanga,-2.85,11.0333,22.82,90,100,1.65,GA,1696026327
408,simanggang,1.2472,111.4528,23.99,94,100,1.54,MY,1696026327
409,moyynkum,44.2914,72.9469,14.8,46,77,2.96,KZ,1696026206
410,gaillimh,53.2719,-9.0489,12.37,85,100,2.71,IE,1696026327
411,juneau,58.3019,-134.4197,10.12,95,100,2.57,US,1696025874
412,urengoy,65.9667,78.3667,0.62,88,51,6.71,RU,1696026328
413,saldanha,-33.0117,17.9442,14.51,92,100,3.76,ZA,1696025782
414,praia da vitoria,38.7333,-27.0667,22.14,88,20,5.82,PT,1696025796
415,morehead city,34.7229,-76.726,22.23,88,100,4.12,US,1696025812
416,dingzhou,38.5131,114.9956,12.06,41,0,2.22,CN,1696026328
417,wuwei,37.9281,102.6414,12.95,59,86,1.98,CN,1696025810
418,beijing,39.9075,116.3972,16.61,40,0,2.59,CN,1696026329
419,takoradi,4.8845,-1.7554,25.22,92,57,2.88,GH,1696026329
420,naliya,23.2667,68.8333,26.68,76,24,4.54,IN,1696026329
421,tsiombe,-25.3,45.4833,21.28,71,0,2.54,MG,1696025844
422,port douglas,-16.4833,145.4667,23.23,70,95,7.46,AU,1696025854
423,soufriere,13.8562,-61.0566,29.81,80,20,3.6,LC,1696025828
424,tostado,-29.232,-61.7692,23.32,35,5,4.1,AR,1696026330
425,hammerfest,70.6634,23.6821,7.25,100,75,1.54,NO,1696025847
426,kidal,18.4411,1.4078,33.93,16,9,3.64,ML,1696026330
427,flin flon,54.7682,-101.865,12.91,88,100,0.0,CA,1696025768
428,suva,-18.1416,178.4415,25.71,57,75,5.14,FJ,1696026330
429,al kharijah,25.4514,30.5464,31.64,17,9,5.13,EG,1696026105
430,aoulef,26.9667,1.0833,30.56,25,0,10.75,DZ,1696026331
431,phalaborwa,-23.943,31.1411,21.6,63,0,2.45,ZA,1696026331
432,ribeira brava,32.65,-17.0667,24.35,85,27,0.73,PT,1696026331
433,glace bay,46.1969,-59.957,14.88,86,75,2.57,CA,1696026331
434,khovd,48.0056,91.6419,3.45,64,44,2.22,MN,1696026332
435,yaren,-0.5472,166.916,28.63,76,100,5.59,NR,1696026332
436,mugia,43.1041,-9.2179,19.95,93,32,3.43,ES,1696026332
437,myskhako,44.6714,37.7433,19.9,53,76,3.67,RU,1696026332
438,phan rang-thap cham,11.5667,108.9833,24.37,91,92,1.99,VN,1696026332
439,muynoq,43.7683,59.0214,15.94,64,57,3.81,UZ,1696026332
440,grand forks,47.9417,-97.4337,23.85,32,40,1.54,US,1696026140
441,ofunato,39.0717,141.7167,19.76,70,97,1.49,JP,1696026333
442,las heras,-46.5419,-68.9359,15.55,31,9,5.42,AR,1696026333
443,chyorny yar,48.0624,46.1091,16.85,37,2,2.39,RU,1696026333
444,laojunmiao,39.8333,97.7333,8.09,35,0,4.65,CN,1696025754
445,grand-bassam,5.2118,-3.7388,26.98,92,82,2.19,CI,1696026334
446,fukuecho,32.6881,128.8419,24.27,75,5,1.87,JP,1696026334
447,keflavik,64.0049,-22.5624,6.24,87,0,2.57,IS,1696025859
448,general conesa,-40.1,-64.4333,13.29,29,0,3.62,AR,1696026336
449,baardheere,2.3446,42.2764,26.21,69,2,7.43,SO,1696026336
450,smithers,54.7804,-127.1743,12.18,58,40,4.12,CA,1696025792
451,uliastay,47.7417,96.8444,-2.93,60,34,3.24,MN,1696026336
452,alajarvi,63.0,23.8167,12.62,93,97,4.12,FI,1696026337
453,satuek,15.297,103.2919,24.31,100,75,1.03,TH,1696026337
454,demidov,55.2706,31.515,12.59,74,78,2.63,RU,1696026337
455,alta,69.9689,23.2717,8.59,87,100,0.0,NO,1696025795
456,tromso,69.6496,18.957,10.01,93,75,3.6,NO,1696026337
457,ola,59.5833,151.2833,6.69,84,100,1.44,RU,1696025743
458,jayamkondacholapuram,11.2167,79.3667,25.43,81,97,4.39,IN,1696026338
459,kas,36.2018,29.6377,22.85,72,0,3.54,TR,1696026338
460,veraval,20.9,70.3667,27.59,75,99,4.16,IN,1696026338
461,kargasok,59.0556,80.8572,5.34,94,84,7.64,RU,1696026339
462,riberalta,-10.9833,-66.1,34.11,55,75,0.0,BO,1696026339
463,rongelap,11.1635,166.8941,28.74,77,73,5.83,MH,1696025815
464,akureyri,65.6835,-18.0878,4.96,81,75,3.09,IS,1696026339
465,lubang,13.8584,120.124,28.23,77,81,1.9,PH,1696025837
466,mizan teferi,6.9833,35.5833,16.79,92,71,1.35,ET,1696026339
467,rio bueno,-40.3167,-72.9667,18.08,75,0,1.47,CL,1696026340
468,touros,-5.1989,-35.4608,25.17,75,94,7.31,BR,1696026291
469,papao,-17.75,-149.55,27.82,82,27,9.29,PF,1696025866
470,zalau,47.2,23.05,14.8,51,0,1.58,RO,1696026340
471,sorong,-0.8833,131.25,26.21,87,100,4.94,ID,1696025842
472,thanh hoa,19.8,105.7667,24.14,97,100,1.81,VN,1696026340
473,velikiye luki,56.34,30.5452,13.45,76,97,2.95,RU,1696026341
474,essaouira,31.5125,-9.77,22.72,73,6,1.54,MA,1696026341
475,berezovyy,51.6667,135.7,7.74,96,100,0.54,RU,1696026341
476,tual,-5.6667,132.75,26.09,85,100,6.67,ID,1696026341
477,edmundston,47.3737,-68.3251,17.63,73,0,2.57,CA,1696026342
478,ladario,-19.0047,-57.6017,33.05,37,67,1.76,BR,1696026119
479,pazaryolu,40.4208,40.771,14.02,69,81,1.54,TR,1696026342
480,madang,-5.2246,145.7966,26.26,84,98,0.42,PG,1696026342
481,boa vista,2.8197,-60.6733,24.99,78,40,3.6,BR,1696025783
482,masvingo,-20.0637,30.8277,21.22,69,66,1.94,ZW,1696026343
483,namibe,-15.1961,12.1522,18.66,85,86,4.22,AO,1696025833
484,ghat,24.9647,10.1728,26.31,34,77,2.1,LY,1696025833
485,lodja,-3.4833,23.4333,23.02,78,92,0.66,CD,1696025787
486,kampene,-3.6,26.6667,20.7,94,100,1.07,CD,1696026343
487,doma,8.3833,8.35,22.28,97,97,0.62,NG,1696026343
488,guinticgan,11.5641,123.1236,26.53,84,90,3.19,PH,1696026344
489,jabat,7.75,168.9751,28.06,79,93,6.56,MH,1696026344
490,ixtapa,20.7,-105.2,32.35,79,75,3.6,MX,1696025833
491,amga,60.8953,131.9608,-2.96,74,65,1.18,RU,1696025864
492,gaalkacyo,6.7697,47.4308,25.95,75,4,8.24,SO,1696026344
493,marquette,46.5333,-87.6335,18.76,74,89,2.24,US,1696026345
494,spirovo,57.419,34.9766,12.62,82,99,2.27,RU,1696026345
495,ko lanta,7.5336,99.0865,27.48,74,81,2.47,TH,1696026345
496,auburn,47.3073,-122.2284,17.33,68,40,6.17,US,1696026345
497,colonia,50.9333,6.95,15.54,86,75,2.06,DE,1696025853
498,bac lieu,9.285,105.7244,25.64,88,93,3.45,VN,1696026127
499,tunduma,-9.3,32.7667,17.81,60,53,4.29,TZ,1696026346
500,minab,27.1467,57.0801,30.65,36,0,2.31,IR,1696026346
501,yung shue wan,22.2333,114.1167,28.71,82,4,0.45,HK,1696026346
502,medicine hat,50.0501,-110.6683,16.58,44,75,4.63,CA,1696026061
503,arteche,12.2645,125.4048,25.64,93,100,2.6,PH,1696025756
504,kiffa,16.6166,-11.4045,36.64,25,99,4.27,MR,1696026347
505,benisheikh,11.8072,12.4909,25.78,74,68,2.21,NG,1696026347
506,chegdomyn,51.1167,133.0167,6.35,94,100,0.64,RU,1696025746
507,zayukovo,43.6161,43.3339,10.12,86,59,1.02,RU,1696026347
508,ulladulla,-35.35,150.4667,16.95,39,1,2.32,AU,1696025665
509,loralai,30.3705,68.598,16.41,14,0,3.58,PK,1696026348
510,pisco,-13.7,-76.2167,20.03,77,0,3.6,PE,1696025682
511,west bay,19.3667,-81.4167,32.25,75,20,2.06,KY,1696026348
512,sa'dah,16.9402,43.7639,19.56,21,23,2.72,YE,1696026348
513,sihanoukville,10.6093,103.5296,26.97,94,40,1.54,KH,1696026348
514,noshiro,40.2039,140.0242,16.46,74,94,2.86,JP,1696026348
515,guiuan,11.0333,125.7247,28.23,79,100,5.66,PH,1696025845
516,gao,16.6362,1.637,34.02,26,100,5.51,ML,1696026349
517,karaton,-6.3424,106.1045,21.9,87,66,0.89,ID,1696026349
518,laguna,38.421,-121.4238,26.99,58,0,6.17,US,1696025851
519,cockburn town,21.4612,-71.1419,29.38,76,16,5.73,TC,1696025755
520,kokopo,-4.352,152.2633,25.27,85,89,1.6,PG,1696026350
521,kenora,49.8167,-94.4337,16.54,77,40,2.06,CA,1696026199
522,carutapera,-1.195,-46.02,26.45,79,25,4.48,BR,1696026350
523,el rosario,24.2556,-107.1828,33.68,58,70,4.66,MX,1696026350
524,port-vila,-17.7338,168.3219,23.78,60,75,8.23,VU,1696025876
525,tosontsengel,48.7567,98.2839,-2.46,84,86,0.26,MN,1696026351
526,praia,14.9215,-23.5087,27.3,83,20,5.14,CV,1696026351
527,salinopolis,-0.6136,-47.3561,26.95,79,35,5.81,BR,1696025757
528,panj,37.2363,69.0991,18.9,29,64,0.72,TJ,1696026351
529,altayskoye,51.9533,85.3325,10.97,92,100,1.15,RU,1696026351
530,ouadda,8.0777,22.4007,20.84,96,90,0.22,CF,1696026352
531,grums,59.3466,13.1091,13.28,94,75,4.12,SE,1696026352
532,greymouth,-42.4667,171.2,9.67,69,61,2.64,NZ,1696025771
533,menongue,-14.6585,17.691,21.69,36,82,0.88,AO,1696026352
534,moramanga,-18.9333,48.2,13.77,97,54,0.34,MG,1696026352
535,broken hill,-31.95,141.4333,21.94,25,0,4.01,AU,1696025721
536,jinka,5.65,36.65,20.1,70,79,1.49,ET,1696026353
537,lhasa,29.65,91.1,10.48,67,94,1.85,CN,1696026353
538,ferrara,44.8,11.8333,18.36,76,7,0.35,IT,1696026353
539,berdyansk,46.7503,36.7944,19.16,56,63,6.54,UA,1696026353
540,namie,37.4833,141.0,20.95,87,100,0.83,JP,1696026354
541,bom jesus,-9.0744,-44.3586,31.59,17,97,2.07,BR,1696026354
542,baharly,38.4362,57.4316,18.91,32,0,2.07,TM,1696026354
543,livingstone,-17.8419,25.8543,24.3,44,9,1.47,ZM,1696026171
544,poronaysk,49.2167,143.1167,10.8,73,69,0.26,RU,1696026355
545,port macquarie,-31.4333,152.9167,20.5,67,1,2.27,AU,1696025776
546,pervomayskoye,43.919,46.7102,15.17,72,68,3.73,RU,1696025756
547,san julian,21.0167,-102.1667,28.78,19,21,2.4,MX,1696026355
548,igrim,63.1906,64.4162,0.57,72,18,1.79,RU,1696026355
549,hilo,19.7297,-155.09,29.03,71,20,3.58,US,1696026355
550,xilin hot,43.9667,116.0333,3.86,75,1,1.6,CN,1696026356
551,pontianak,-0.0333,109.3333,23.99,88,40,1.03,ID,1696026356
552,vail,32.0479,-110.712,37.33,9,1,1.79,US,1696026228
553,camana,-16.6228,-72.7111,18.82,81,64,3.39,PE,1696026356
554,novyy urgal,51.0736,132.5642,6.58,95,99,0.22,RU,1696026356
555,spring creek,40.7266,-115.5859,24.34,21,46,3.78,US,1696026357
556,tazacorte,28.629,-17.9293,23.54,78,20,1.34,ES,1696025816
557,ineu,46.4333,21.85,16.64,50,0,1.34,RO,1696026357
558,johi,26.6921,67.6133,29.73,13,0,2.41,PK,1696026358
559,fort stockton,30.894,-102.8793,35.03,33,14,7.2,US,1696026359
560,ritchie,-29.038,24.6028,14.56,15,75,3.3,ZA,1696026360
561,maintirano,-18.0667,44.0167,25.51,70,4,2.25,MG,1696026111
562,limulunga,-15.0969,23.1376,24.18,43,85,1.99,ZM,1696026360
563,selsey,50.735,-0.7898,14.4,94,100,3.94,GB,1696026361
564,fria,10.4167,-13.5833,24.57,97,100,1.1,GN,1696026361
565,bahir dar,11.5936,37.3908,15.64,88,74,1.66,ET,1696026361
566,vanino,49.0869,140.2543,12.27,66,99,2.84,RU,1696026361
567,siuna,13.7332,-84.7773,28.24,90,63,1.51,NI,1696026085
568,aljezur,37.3191,-8.8033,22.75,54,35,1.42,PT,1696026172
569,fuzhou,26.0614,119.3061,25.94,94,1,1.2,CN,1696026362
570,norderney,53.7,7.15,16.12,72,0,9.31,DE,1696026362
571,coyhaique,-45.5752,-72.0662,15.34,31,0,3.6,CL,1696026363
572,arkhangel'sk,64.5401,40.5433,11.13,93,100,3.41,RU,1696025829
573,sanliurfa,37.2128,38.7817,21.93,60,0,3.03,TR,1696026271
574,laboe,54.4,10.2167,13.47,88,19,3.6,DE,1696026363
575,tsengel,49.4783,100.8894,1.23,82,17,1.28,MN,1696026363
576,buchach,49.0625,25.388,14.96,47,6,1.83,UA,1696026363
577,rabaul,-4.1967,152.1721,26.03,82,90,2.1,PG,1696026364
