City_ID,City,Lat,Lng,Max Temp,Humidity,Cloudiness,Wind Speed,Country,Date
0,fort bragg,35.139,-79.006,18.22,90,0,0.0,US,1696221642
1,tecuala,22.3986,-105.4569,26.61,89,10,0.48,MX,1696221718
2,portland,45.5234,-122.6762,15.69,71,60,0.45,US,1696221580
3,sisimiut,66.9395,-53.6735,0.15,67,80,3.5,GL,1696221718
4,port-aux-francais,-49.35,70.2167,1.26,83,95,20.72,TF,1696221718
5,bethel,41.3712,-73.414,18.69,85,0,0.0,US,1696221692
6,fort st. john,56.2499,-120.8529,8.94,66,75,6.17,CA,1696221468
7,edinburgh of the seven seas,-37.0676,-12.3116,9.89,66,97,10.48,SH,1696221719
8,manokwari,-0.8667,134.0833,28.87,74,70,4.18,ID,1696221719
9,juarez,31.7333,-106.4833,28.44,24,40,3.13,MX,1696221426
10,waitangi,-43.9535,-176.5597,13.23,89,75,3.58,NZ,1696221719
11,adamstown,-25.066,-130.1015,20.43,79,41,10.75,PN,1696221720
12,port mathurin,-19.6833,63.4167,23.22,81,12,6.5,MU,1696221720
13,minas de marcona,-15.2119,-75.1103,13.69,90,62,4.68,PE,1696221720
14,jurm,36.8648,70.8342,16.64,42,88,1.73,AF,1696221720
15,birjand,32.8663,59.2211,19.26,14,0,5.14,IR,1696221720
16,nagqu,31.5,92.0,9.09,62,100,3.78,CN,1696221721
17,shiyan,32.6475,110.7781,14.9,94,100,0.5,CN,1696221721
18,grytviken,-54.2811,-36.5092,2.41,95,46,4.86,GS,1696221721
19,margaret river,-33.95,115.0667,13.73,48,84,10.44,AU,1696221721
20,college,64.8569,-147.8028,4.69,86,100,2.57,US,1696221721
21,puerto natales,-51.7236,-72.4875,0.28,88,95,2.08,CL,1696221722
22,talnakh,69.4865,88.3972,-9.33,92,85,4.1,RU,1696221722
23,thompson,55.7435,-97.8558,3.09,93,100,3.6,CA,1696221722
24,loa janan,-0.583,117.095,34.94,38,96,2.23,ID,1696221722
25,tolanaro,-25.0319,46.9987,26.04,57,40,7.2,MG,1696221723
26,wailua homesteads,22.0669,-159.378,28.24,83,75,6.69,US,1696221723
27,betio village,1.358,172.9211,32.02,67,4,3.13,KI,1696221723
28,blackmans bay,-43.0167,147.3167,22.63,30,52,5.29,AU,1696221723
29,stanley,54.868,-1.6985,12.1,93,100,1.76,GB,1696221723
30,albany,42.6001,-73.9662,17.45,89,6,0.45,US,1696221469
31,puerto leguizamo,-0.1934,-74.7819,22.24,98,74,0.63,CO,1696221724
32,perry,37.2506,-83.1999,19.4,80,0,1.2,US,1696221724
33,whitehorse,60.7161,-135.0538,7.43,73,75,6.17,CA,1696221724
34,gizo,-8.103,156.8419,27.7,79,71,6.0,SB,1696221724
35,kapuskasing,49.4169,-82.4331,18.0,82,100,4.12,CA,1696221497
36,punta arenas,-53.15,-70.9167,1.06,80,0,5.66,CL,1696221725
37,ushuaia,-54.8,-68.3,1.81,69,0,7.72,AR,1696221726
38,kodiak,57.79,-152.4072,6.73,93,0,2.06,US,1696221726
39,tiksi,71.6872,128.8694,-4.36,75,12,0.82,RU,1696221727
40,papatowai,-46.5619,169.4708,5.59,86,100,11.93,NZ,1696221727
41,belmonte,-15.8631,-38.8828,21.66,85,31,1.72,BR,1696221727
42,camayenne,9.535,-13.6878,27.31,83,100,2.0,GN,1696221727
43,iskateley,67.6803,53.1512,10.57,96,91,3.58,RU,1696221728
44,santarem,-2.4431,-54.7083,27.07,94,0,0.0,BR,1696221728
45,tomohon,1.3346,124.8392,28.52,49,61,0.49,ID,1696221728
46,constantia,44.1833,28.65,14.38,55,55,8.74,RO,1696221728
47,xique xique,-10.8217,-42.7311,25.1,53,6,5.27,BR,1696221729
48,hammerfest,70.6634,23.6821,1.25,93,75,1.03,NO,1696221729
49,qandala,11.472,49.8728,29.33,53,9,1.43,SO,1696221729
50,ilulissat,69.2167,-51.1,-1.99,54,1,2.06,GL,1696221729
51,redencao,-4.2258,-38.7306,23.41,89,52,1.37,BR,1696221729
52,chonchi,-42.6128,-73.8092,5.07,98,73,0.65,CL,1696221730
53,antonio enes,-16.2325,39.9086,25.28,70,3,0.64,MZ,1696221730
54,namibe,-15.1961,12.1522,17.07,87,15,1.17,AO,1696221730
55,pallisa,1.145,33.7094,21.48,82,55,1.15,UG,1696221730
56,tazacorte,28.629,-17.9293,22.54,83,0,3.6,ES,1696221730
57,agios nikolaos,35.1914,25.7133,24.31,45,0,9.68,GR,1696221731
58,hermanus,-34.4187,19.2345,14.42,60,0,4.37,ZA,1696221731
59,preobrazheniye,42.9019,133.9064,14.69,52,41,4.47,RU,1696221731
60,san antonio de pale,-1.4014,5.6325,25.06,84,92,4.69,GQ,1696221731
61,tura,25.5198,90.2201,28.31,81,66,1.83,IN,1696221732
62,majuro,7.0897,171.3803,30.98,74,100,1.54,MH,1696221732
63,ribas do rio pardo,-20.4431,-53.7592,24.01,83,16,1.13,BR,1696221732
64,papao,-17.75,-149.55,26.82,83,6,7.7,PF,1696221732
65,ar rutbah,33.0381,40.2848,22.99,45,100,4.12,IQ,1696221732
66,fortuna,40.5982,-124.1573,12.74,93,100,0.0,US,1696221733
67,gamboma,-1.8764,15.8644,23.52,89,55,0.69,CG,1696221733
68,petropavlovsk-kamchatsky,53.0452,158.6483,10.33,92,100,6.71,RU,1696221733
69,bulayevo,54.9056,70.4439,12.58,62,0,3.59,KZ,1696221678
70,noumea,-22.2763,166.4572,25.99,63,39,7.4,NC,1696221733
71,cadiz,36.5,-5.75,19.86,59,58,3.0,ES,1696221734
72,tinajo,29.0788,-13.7081,22.49,83,0,3.09,ES,1696221734
73,nogliki,51.8333,143.1667,10.75,96,100,11.18,RU,1696221734
74,gitarama,-2.0744,29.7567,14.7,67,92,0.77,RW,1696221734
75,harper,4.375,-7.7169,24.62,89,98,3.97,LR,1696221735
76,quellon,-43.1167,-73.6167,3.89,88,14,1.06,CL,1696221735
77,touros,-5.1989,-35.4608,23.95,78,32,5.07,BR,1696221735
78,avarua,-21.2078,-159.775,22.03,88,75,5.66,CK,1696221735
79,valley city,46.9233,-98.0032,23.29,60,0,5.66,US,1696221736
80,weno,7.4515,151.8468,31.97,74,75,2.06,FM,1696221736
81,lebu,-37.6167,-73.65,8.04,84,89,1.23,CL,1696221736
82,jamestown,42.097,-79.2353,17.8,90,40,2.57,US,1696221690
83,gulnar,36.3415,33.3992,15.92,53,3,2.53,TR,1696221737
84,west island,-12.1568,96.8225,26.99,69,75,7.2,CC,1696221737
85,hailar,49.2,119.7,16.07,33,73,2.66,CN,1696221737
86,ribeira grande,38.5167,-28.7,18.76,71,98,1.79,PT,1696221738
87,hawaiian paradise park,19.5933,-154.9731,26.73,83,100,1.54,US,1696221738
88,isafjordur,66.0755,-23.124,4.63,97,100,11.46,IS,1696221738
89,bredasdorp,-34.5322,20.0403,11.06,73,2,2.4,ZA,1696221738
90,oodweyne,9.4092,45.064,26.23,49,18,1.37,SO,1696221738
91,kualakapuas,-3.0091,114.3876,38.77,20,46,2.06,ID,1696221561
92,parkes,-33.1333,148.1833,34.08,14,49,6.98,AU,1696221739
93,isfahan,32.6572,51.6776,11.8,16,15,1.74,IR,1696221558
94,puerto ayora,-0.7393,-90.3518,21.97,100,95,1.34,EC,1696221739
95,menzelinsk,55.7271,53.1026,12.34,59,72,5.36,RU,1696221739
96,cape coast,5.1053,-1.2466,24.62,92,46,3.05,GH,1696221740
97,ciudad cuauhtemoc,22.1833,-97.8333,29.42,84,40,5.14,MX,1696221740
98,afaahiti,-17.75,-149.2833,25.93,86,13,6.96,PF,1696221740
99,aasiaat,68.7098,-52.8699,-8.29,86,25,4.21,GL,1696221740
100,atafu village,-8.5421,-172.5159,28.8,71,26,4.33,TK,1696221740
101,gadzhiyevo,69.2551,33.3362,2.72,72,92,8.68,RU,1696221741
102,qaqortoq,60.7167,-46.0333,1.85,77,100,0.83,GL,1696221741
103,gebeit,21.0667,36.3167,28.78,42,6,2.11,SD,1696221741
104,utrik,11.2278,169.8474,28.58,78,86,5.82,MH,1696221741
105,westport,41.1415,-73.3579,18.99,83,0,3.13,US,1696221741
106,iqaluit,63.7506,-68.5145,2.85,93,100,2.57,CA,1696221742
107,longyearbyen,78.2186,15.6401,-3.09,63,75,9.77,SJ,1696221742
108,cabo san lucas,22.8909,-109.9124,29.61,74,6,3.13,MX,1696221468
109,lerwick,60.1545,-1.1494,12.0,82,58,7.77,GB,1696221742
110,lethem,3.3803,-59.7968,27.65,34,100,2.31,GY,1696221742
111,vadso,70.0744,29.7487,0.49,80,0,5.14,NO,1696221743
112,richards bay,-28.783,32.0377,17.29,68,94,0.33,ZA,1696221743
113,georgetown,5.4112,100.3354,30.97,74,20,3.13,MY,1696221569
114,bardai,11.65,7.2333,20.28,96,95,3.31,NG,1696221743
115,aral,40.5156,81.2636,22.15,21,10,0.75,CN,1696221744
116,kailua-kona,19.6406,-155.9956,27.98,83,40,4.63,US,1696221468
117,singarayakonda,15.25,80.0333,30.54,56,100,7.7,IN,1696221744
118,saudarkrokur,65.7461,-19.6394,5.4,89,100,4.9,IS,1696221744
119,nevinnomyssk,44.6267,41.9453,14.56,73,96,3.41,RU,1696221744
120,new norfolk,-42.7826,147.0587,23.29,20,25,4.28,AU,1696221745
121,jacmel,18.2342,-72.5347,28.91,82,100,1.52,HT,1696221745
122,cabedelo,-6.9811,-34.8339,22.37,75,9,3.58,BR,1696221745
123,ivdel',60.6911,60.4206,12.88,70,99,3.65,RU,1696221745
124,olonkinbyen,70.9221,-8.7187,0.02,90,100,8.05,SJ,1696221745
125,hasaki,35.7333,140.8333,24.22,53,94,8.23,JP,1696221558
126,egilsstadir,65.2653,-14.3948,5.95,93,100,11.32,IS,1696221746
127,geraldton,-28.7667,114.6,21.23,46,75,8.23,AU,1696221746
128,sur,22.5667,59.5289,31.6,55,55,3.35,OM,1696221747
129,ballina,-28.8667,153.5667,30.43,55,0,6.86,AU,1696221747
130,keflavik,64.0049,-22.5624,8.95,76,0,6.69,IS,1696221747
131,barah,13.7,30.3667,29.07,53,62,4.51,SD,1696221747
132,zuni pueblo,35.0725,-108.8506,20.35,38,58,5.39,US,1696221747
133,calderitas,18.55,-88.25,27.44,85,30,2.76,MX,1696221748
134,santiago de cuba,20.0247,-75.8219,28.06,74,40,3.09,CU,1696221748
135,yakeshi,49.2833,120.7333,15.25,38,45,2.6,CN,1696221748
136,borogontsy,62.6683,131.1683,7.04,87,100,2.5,RU,1696221748
137,la palma,33.8464,-118.0467,17.73,80,0,2.06,US,1696221748
138,dawson creek,55.7666,-120.2362,9.8,66,20,1.03,CA,1696221749
139,kurtalan,37.9272,41.7028,16.42,88,75,2.57,TR,1696221749
140,tindouf,27.6711,-8.1474,24.25,23,0,4.12,DZ,1696221749
141,invercargill,-46.4,168.35,6.68,84,100,7.15,NZ,1696221749
142,jacupiranga,-24.6925,-48.0022,17.64,99,100,0.52,BR,1696221749
143,obudu,6.6674,9.1716,22.72,97,95,1.34,NG,1696221750
144,yokadouma,3.5167,15.05,20.82,99,99,0.55,CM,1696221750
145,forster,-32.1667,152.5167,22.43,70,0,4.33,AU,1696221750
146,simpang,-1.2667,104.0833,35.62,38,89,1.88,ID,1696221750
147,vilyuchinsk,52.9306,158.4028,11.15,92,100,9.43,RU,1696221750
148,dinguiraye,11.3,-10.7167,22.12,91,100,0.51,GN,1696221751
149,meridian,43.6121,-116.3915,11.47,92,100,1.54,US,1696221751
150,ust-nera,64.5667,143.2,1.79,56,28,2.68,RU,1696221751
151,yeosu,34.7546,127.6599,22.36,39,97,2.08,KR,1696221751
152,haiku-pauwela,20.9219,-156.3051,26.13,71,40,8.75,US,1696221751
153,sake,-1.5736,29.045,20.0,76,97,0.19,CD,1696221752
154,illizi,26.4833,8.4667,23.89,38,0,5.56,DZ,1696221752
155,limon,10.0,-83.0333,24.47,82,100,1.66,CR,1696221752
156,klyuchi,52.2667,79.1667,11.09,54,0,3.75,RU,1696221752
157,tchintabaraden,15.8969,5.7985,27.66,48,67,3.91,NE,1696221753
158,lompoc,34.6391,-120.4579,14.96,84,75,3.13,US,1696221753
159,margate,51.3813,1.3862,16.06,94,99,3.41,GB,1696221754
160,cockburn town,21.4612,-71.1419,28.57,74,78,6.92,TC,1696221754
161,goundam,16.4145,-3.6708,33.15,31,100,4.56,ML,1696221754
162,colonia,50.9333,6.95,17.46,86,0,1.03,DE,1696221661
163,bakchar,57.0186,82.0711,8.57,60,91,4.34,RU,1696221754
164,solleftea,63.1667,17.2667,0.92,87,91,0.37,SE,1696221755
165,aflou,34.1128,2.1023,16.31,39,0,1.16,DZ,1696221755
166,tazovsky,67.4667,78.7,1.54,98,100,8.28,RU,1696221755
167,selfoss,63.9331,-20.9971,7.8,74,91,5.01,IS,1696221755
168,howrah,22.5892,88.3103,27.0,100,75,2.57,IN,1696221755
169,tahe,52.3333,124.7333,13.45,46,18,0.79,CN,1696221756
170,mahavelona,-17.6848,49.5087,23.99,69,41,2.89,MG,1696221756
171,kavieng,-2.5744,150.7967,29.12,71,76,1.89,PG,1696221756
172,janauba,-15.8025,-43.3089,25.02,59,53,1.73,BR,1696221756
173,teramo,42.65,13.6833,19.67,48,3,1.71,IT,1696221756
174,fomboni,-12.28,43.7425,25.74,75,15,3.33,KM,1696221757
175,udachny,66.4167,112.4,-0.86,92,100,4.4,RU,1696221538
176,st. john's,47.5649,-52.7093,12.76,91,40,7.2,CA,1696221743
177,coahuayana de hidalgo,18.7,-103.6583,27.0,94,92,0.6,MX,1696221758
178,rufino,-34.2683,-62.7126,13.73,44,0,6.23,AR,1696221758
179,impfondo,1.6381,18.0667,21.9,97,93,0.36,CG,1696221758
180,bilibino,68.0546,166.4372,-1.14,97,100,1.29,RU,1696221758
181,tezu,27.9167,96.1667,27.0,90,100,0.24,IN,1696221759
182,ola,59.5833,151.2833,9.67,66,28,0.54,RU,1696221759
183,pimenta bueno,-11.6725,-61.1936,26.64,65,70,1.6,BR,1696221759
184,masterton,-40.9597,175.6575,13.82,78,97,9.63,NZ,1696221759
185,port alfred,-33.5906,26.891,13.43,84,3,0.45,ZA,1696221760
186,hobyo,5.3505,48.5268,27.36,77,47,7.17,SO,1696221760
187,anadyr,64.75,177.4833,3.28,55,0,4.0,RU,1696221755
188,lupane,-18.9315,27.807,19.91,64,0,5.87,ZW,1696221760
189,yellowknife,62.456,-114.3525,8.56,100,100,1.54,CA,1696221637
190,labasa,-16.4167,179.3833,24.65,63,93,5.62,FJ,1696221761
191,ciudad lazaro cardenas,17.9583,-102.2,27.57,87,85,1.29,MX,1696221761
192,malango,-2.9627,119.9001,30.83,42,83,2.36,ID,1696221761
193,hamilton,39.1834,-84.5333,20.54,84,0,0.89,US,1696221563
194,jumla,29.2747,82.1838,22.09,54,5,2.36,NP,1696221761
195,nuuk,64.1835,-51.7216,2.34,75,100,2.57,GL,1696221511
196,tofol,5.3248,163.0078,31.88,70,75,1.54,FM,1696221762
197,dazhong,33.1997,120.4578,22.29,57,97,3.13,CN,1696221762
198,sambava,-14.2667,50.1667,24.58,74,16,2.16,MG,1696221762
199,oroquieta,8.4858,123.8044,29.83,73,100,1.82,PH,1696221762
200,okhotsk,59.3833,143.3,9.51,68,68,1.01,RU,1696221763
201,dunedin,-45.8742,170.5036,7.11,86,91,14.31,NZ,1696221763
202,saipan,15.1355,145.701,31.39,74,40,8.23,MP,1696221763
203,verkhniye sergi,56.6469,59.5556,11.49,67,46,5.46,RU,1696221763
204,sydney,-33.8679,151.2073,27.16,60,20,7.72,AU,1696221506
205,arraial do cabo,-22.9661,-42.0278,20.93,97,99,1.44,BR,1696221764
206,la libertad,-2.2333,-80.9,22.08,84,100,4.88,EC,1696221764
207,aljezur,37.3191,-8.8033,19.57,67,23,1.01,PT,1696221764
208,tissemsilt,35.6072,1.8108,13.76,46,0,1.43,DZ,1696221727
209,akrehamn,59.2667,5.1833,13.56,93,40,2.06,NO,1696221764
210,badger,64.8,-147.5333,4.64,88,100,2.57,US,1696221765
211,patos de minas,-18.5789,-46.5181,20.8,90,100,1.77,BR,1696221532
212,puerto armuelles,8.2833,-82.8667,23.38,94,100,2.24,PA,1696221522
213,lihue,21.9789,-159.3672,28.58,78,75,6.69,US,1696221765
214,betare oya,5.6,14.0833,19.33,98,97,0.7,CM,1696221765
215,kisangani,0.5167,25.2,21.74,97,95,0.29,CD,1696221765
216,corry,41.9203,-79.6403,15.54,87,7,1.11,US,1696221556
217,williamsburg,37.2707,-76.7075,17.13,87,0,0.0,US,1696221720
218,saint-augustin-de-desmaures,46.7406,-71.4513,13.97,79,0,2.57,CA,1696221657
219,kingston,17.997,-76.7936,28.53,85,20,2.57,JM,1696221579
220,bassila,9.0081,1.6654,22.1,98,99,1.14,BJ,1696221767
221,altai,46.3722,96.2583,6.52,54,41,2.25,MN,1696221767
222,mugia,43.1041,-9.2179,16.06,91,40,5.87,ES,1696221767
223,alofi,-19.0595,-169.9187,22.94,68,75,8.23,NU,1696221767
224,berber,18.0216,33.983,32.87,18,0,3.54,SD,1696221767
225,jamaame,0.0697,42.745,27.89,63,0,5.41,SO,1696221768
226,kolonia,50.9333,6.95,17.46,86,0,1.03,DE,1696221645
227,nuku'alofa,-21.1333,-175.2,22.19,56,20,8.75,TO,1696221768
228,hithadhoo,-0.6,73.0833,28.01,73,9,6.53,MV,1696221768
229,polyarnyy,69.1989,33.4478,3.16,73,97,8.47,RU,1696221768
230,lospalos,-8.5186,127.0025,28.19,57,56,5.13,TL,1696221769
231,nyurba,63.2842,118.3319,2.24,94,100,4.92,RU,1696221769
232,tabou,4.423,-7.3528,24.51,89,81,3.66,CI,1696221769
233,ketchikan,55.3422,-131.6461,11.99,93,100,3.6,US,1696221769
234,pathein,16.7833,94.7333,25.26,94,100,2.96,MM,1696221769
235,praia,14.9215,-23.5087,25.3,88,20,2.57,CV,1696221769
236,acapulco de juarez,16.8634,-99.8901,26.9,83,100,2.06,MX,1696221770
237,omdurman,15.6445,32.4777,33.29,36,1,5.38,SD,1696221770
238,usogorsk,63.4106,48.6872,10.37,92,100,3.55,RU,1696221770
239,naze,28.3667,129.4833,27.51,76,72,7.6,JP,1696221770
240,yasnyy,51.0333,59.8742,13.89,50,98,2.35,RU,1696221770
241,la ronge,55.1001,-105.2842,7.14,81,100,2.06,CA,1696221771
242,nemuro,43.3236,145.575,18.15,64,0,7.38,JP,1696221771
243,mejit,10.2753,170.8646,28.43,78,85,5.08,MH,1696221771
244,shakawe,-18.3667,21.85,22.9,20,41,2.37,BW,1696221771
245,saint-louis,16.3333,-15.0,26.8,69,18,4.33,SN,1696221771
246,garachico,28.7781,-17.7646,21.06,83,0,3.6,ES,1696221772
247,coquimbo,-29.9533,-71.3436,13.85,82,100,3.09,CL,1696221772
248,san patricio,28.017,-97.5169,27.92,81,5,4.92,US,1696221772
249,grand baie,-20.0182,57.5802,25.81,69,12,1.34,MU,1696221772
250,tongchuanshi,35.0806,109.0897,14.44,79,99,1.48,CN,1696221772
251,cam ranh,11.9214,109.1591,24.98,100,75,2.06,VN,1696221773
252,salinopolis,-0.6136,-47.3561,26.6,81,70,5.69,BR,1696221773
253,toliara,-23.35,43.6667,25.17,69,65,5.35,MG,1696221773
254,rio cuarto,-33.1307,-64.3499,16.87,27,0,5.14,AR,1696221773
255,big spring,32.2504,-101.4787,24.57,62,0,7.2,US,1696221773
256,slave lake,55.2834,-114.769,9.99,62,75,2.57,CA,1696221562
257,hell-ville,-13.4,48.2667,25.93,77,75,1.03,MG,1696221774
258,sterling,39.0062,-77.4286,18.45,85,0,0.0,US,1696221666
259,akureyri,65.6835,-18.0878,5.96,75,100,8.23,IS,1696221775
260,laguna,38.421,-121.4238,19.62,59,75,1.54,US,1696221775
261,carnarvon,-24.8667,113.6333,22.12,59,47,7.89,AU,1696221775
262,port elizabeth,-33.918,25.5701,14.16,82,0,4.63,ZA,1696221745
263,benoy,8.9833,16.3199,22.56,96,98,1.25,TD,1696221773
264,yuzhno-kurilsk,44.0306,145.8556,17.99,57,3,4.55,RU,1696221776
265,bhindar,24.5,74.1833,29.14,42,3,1.56,IN,1696221776
266,vilyuysk,63.7553,121.6247,9.44,71,100,3.13,RU,1696221776
267,nasiriyah,31.0521,46.261,32.11,20,75,1.75,IQ,1696221776
268,kaa-khem,51.6833,94.7333,9.87,43,13,1.74,RU,1696221776
269,hengchun,22.0042,120.7439,29.81,68,18,2.77,TW,1696221776
270,mutsalaul,43.2755,46.7308,20.07,61,52,3.56,RU,1696221777
271,sitka,57.0531,-135.33,11.94,82,100,6.17,US,1696221777
272,mata-utu,-13.2816,-176.1745,27.0,79,100,11.16,WF,1696221777
273,katsuren-haebaru,26.3369,127.8719,32.43,67,75,7.2,JP,1696221777
274,zmiyiv,49.6966,36.3611,14.97,63,98,4.85,UA,1696221777
275,i-n-salah,27.1935,2.4607,25.59,37,0,7.88,DZ,1696221778
276,fort-shevchenko,44.5086,50.263,20.18,47,3,4.96,KZ,1696221778
277,beira,-19.8436,34.8389,23.05,88,100,9.77,MZ,1696221778
278,cidreira,-30.1811,-50.2056,12.16,74,0,1.9,BR,1696221779
279,caxito,-8.5785,13.6643,22.94,89,38,1.36,AO,1696221780
280,aykhal,66.0,111.5,0.04,98,100,7.15,RU,1696221780
281,novobod,39.0108,70.1508,17.8,28,79,1.93,TJ,1696221781
282,kargasok,59.0556,80.8572,7.2,80,95,5.81,RU,1696221781
283,carolina,18.3808,-65.9574,29.42,92,96,2.45,PR,1696221781
284,holualoa,19.6228,-155.9522,25.91,83,40,4.63,US,1696221781
285,bandon,51.7469,-8.7425,11.77,95,100,2.46,IE,1696221782
286,ylitornio,66.3089,23.6773,5.45,93,100,2.42,FI,1696221782
287,puerto iguazu,-25.5991,-54.5736,18.49,92,0,1.03,AR,1696221610
288,hancheng,32.5186,112.3522,15.08,94,100,3.56,CN,1696221782
289,greymouth,-42.4667,171.2,9.41,81,97,10.6,NZ,1696221782
290,afif,23.9065,42.9172,28.15,15,0,6.08,SA,1696221783
291,flying fish cove,-10.4217,105.6791,26.82,69,40,7.2,CX,1696221783
292,nova sintra,14.8667,-24.7167,23.49,79,96,4.88,CV,1696221783
293,vorgashor,67.5833,63.95,9.18,97,100,7.34,RU,1696221783
294,moses lake,47.1301,-119.2781,16.2,44,0,3.6,US,1696221736
295,bam,29.106,58.357,28.04,16,0,1.3,IR,1696221784
296,pierre,44.3683,-100.351,24.36,60,0,4.12,US,1696221784
297,englewood,39.6478,-104.9878,20.92,45,20,6.69,US,1696221784
298,tugulym,57.0591,64.6425,10.18,62,88,5.28,RU,1696221784
299,kwang binh,17.4833,106.6,29.34,73,18,2.81,VN,1696221785
300,remire-montjoly,4.9167,-52.2667,26.02,89,20,0.51,GF,1696221785
301,port macquarie,-31.4333,152.9167,23.83,65,6,3.39,AU,1696221726
302,sinabang,2.4803,96.3801,27.25,80,100,5.06,ID,1696221785
303,chegdomyn,51.1167,133.0167,9.07,74,100,1.79,RU,1696221785
304,cururupu,-1.8283,-44.8683,25.41,84,8,2.6,BR,1696221512
305,abbeville,50.1,1.8333,15.83,88,70,1.25,FR,1696221786
306,basco,20.4487,121.9702,28.55,81,100,12.14,PH,1696221786
307,okondja,-0.6549,13.6753,21.79,99,68,0.9,GA,1696221786
308,kupang,-10.1667,123.5833,33.32,49,40,3.09,ID,1696221786
309,lubao,14.9167,120.55,31.04,79,99,3.35,PH,1696221787
310,lesogorsk,56.0458,99.5136,4.64,44,100,3.6,RU,1696221787
311,hadibu,12.65,54.0333,27.61,75,23,1.54,YE,1696221787
312,callao,-12.0667,-77.15,19.84,77,100,6.69,PE,1696221788
313,sedona,34.8697,-111.761,16.03,64,40,2.57,US,1696221786
314,midvagur,62.0511,-7.1939,10.46,93,100,6.17,FO,1696221788
315,enewetak,11.3474,162.3373,28.82,76,95,4.89,MH,1696221788
316,at taj,24.2049,23.2857,25.33,32,100,3.18,LY,1696221789
317,indre arna,60.4247,5.4764,11.12,93,91,1.61,NO,1696221789
318,strathalbyn,-35.2667,138.9,27.59,40,0,8.07,AU,1696221789
319,east london,-33.0153,27.9116,14.52,72,0,3.6,ZA,1696221789
320,brookings,44.3114,-96.7984,24.65,53,0,6.69,US,1696221525
321,kogalym,62.2654,74.4791,9.31,79,75,9.72,RU,1696221790
322,dalandzadgad,43.5708,104.425,18.41,19,2,9.78,MN,1696221790
323,tarboro,35.8968,-77.5358,16.21,100,0,0.0,US,1696221790
324,walvis bay,-22.9575,14.5053,12.27,93,100,2.06,NA,1696221790
325,vernon,50.2581,-119.2691,11.83,74,68,3.6,CA,1696221790
326,beyneu,45.3167,55.2,19.82,35,38,5.86,KZ,1696221678
327,puerto francisco de orellana,-0.4667,-76.9667,22.44,93,66,0.53,EC,1696221791
328,gabarin,11.1093,10.4441,22.31,84,99,1.61,NG,1696221791
329,jingling,30.65,113.1,20.2,81,100,3.17,CN,1696221791
330,fisterra,42.9049,-9.2629,15.97,92,28,5.25,ES,1696221792
331,medjez el bab,36.6496,9.6123,18.48,94,0,0.28,TN,1696221792
332,copiapo,-27.3667,-70.3333,11.83,73,3,1.88,CL,1696221792
333,kirakira,-10.4544,161.9205,27.84,82,68,6.06,SB,1696221792
334,pacific grove,36.6177,-121.9166,15.24,88,0,0.45,US,1696221738
335,kashgar,39.4547,75.9797,20.56,24,75,2.0,CN,1696221793
336,rongelap,11.1635,166.8941,28.84,77,65,5.8,MH,1696221793
337,palikir - national government center,6.9248,158.1611,28.89,72,23,2.52,FM,1696221793
338,oranjemund,-28.55,16.4333,15.33,75,0,1.1,NA,1696221793
339,dudinka,69.4058,86.1778,-9.1,90,65,3.58,RU,1696221793
340,merizo village,13.2658,144.6691,32.31,88,10,5.95,GU,1696221794
341,igarka,67.4667,86.5833,-0.27,67,43,5.81,RU,1696221794
342,bairnsdale,-37.8333,147.6167,21.14,56,16,2.68,AU,1696221794
343,redcar,54.6166,-1.06,13.52,90,98,1.34,GB,1696221794
344,podporozh'ye,60.9112,34.1706,9.35,89,100,1.99,RU,1696221794
345,namsos,64.4662,11.4957,8.03,76,75,3.6,NO,1696221795
346,omutinskiy,56.4745,67.6709,12.92,65,8,5.87,RU,1696221795
347,tual,-5.6667,132.75,26.54,85,65,5.67,ID,1696221795
348,nar'yan-mar,67.6713,53.087,10.62,96,91,3.58,RU,1696221795
349,usinsk,65.9939,57.5281,9.48,94,90,7.15,RU,1696221795
350,icano,-28.9193,-65.3282,18.2,44,14,3.97,AR,1696221796
351,marsh harbour,26.5412,-77.0636,27.39,75,87,6.47,BS,1696221796
352,deyang,31.1302,104.382,20.13,74,100,0.72,CN,1696221575
353,tikhvin,59.6451,33.5294,11.72,74,99,4.47,RU,1696221796
354,la passe,45.5549,-0.8967,19.13,63,11,4.27,FR,1696221796
355,gerash,27.6652,54.1371,22.08,28,0,2.04,IR,1696221797
356,lodeve,43.7167,3.3167,14.79,66,48,1.23,FR,1696221797
357,sodankyla,67.4167,26.6,2.32,90,89,1.75,FI,1696221797
358,mangrol,21.1167,70.1167,28.68,56,29,4.26,IN,1696221797
359,saint-denis,48.9167,2.3333,16.73,86,0,3.09,FR,1696221798
360,ta'izz,13.5,44.0,23.59,54,0,1.9,YE,1696221798
361,timbuktu,16.7735,-3.0074,32.73,31,94,2.63,ML,1696221798
362,katima mulilo,-17.5,24.2667,25.54,37,14,3.66,NA,1696221798
363,ghat,24.9647,10.1728,24.68,40,2,2.11,LY,1696221798
364,fuglafjordur,62.244,-6.814,10.26,87,97,7.06,FO,1696221799
365,solnechnyy,50.7214,136.6319,7.24,95,100,5.24,RU,1696221799
366,zahedan,29.4963,60.8629,21.95,18,0,0.0,IR,1696221799
367,olyokminsk,60.3736,120.4264,4.99,73,100,5.36,RU,1696221799
368,kavaratti,10.5669,72.642,27.85,78,100,4.36,IN,1696221799
369,nantucket,41.2835,-70.0995,15.03,92,0,3.6,US,1696221610
370,black river,18.0264,-77.8487,27.53,81,22,1.05,JM,1696221800
371,san ignacio,17.1561,-89.0714,25.08,100,75,0.0,BZ,1696221800
372,karachev,53.1229,34.9852,10.26,76,85,2.21,RU,1696221800
373,kerikeri,-35.2268,173.9474,19.39,72,25,0.45,NZ,1696221676
374,qinzhou,21.95,108.6167,32.31,59,44,3.48,CN,1696221557
375,kone,-21.0595,164.8658,23.57,58,41,4.08,NC,1696221801
376,ballito,-29.539,31.2144,15.08,82,20,0.51,ZA,1696221801
377,tralee,52.2704,-9.7026,10.7,95,100,2.41,IE,1696221801
378,ji'an,27.1172,114.9793,29.04,58,54,2.43,CN,1696221801
379,thomson,33.4707,-82.5046,17.47,93,0,0.0,US,1696221555
380,gewane,10.1664,40.6453,31.38,28,1,2.11,ET,1696221802
381,novomikhaylovskiy,44.2581,38.8578,19.66,83,100,1.52,RU,1696221802
382,broken hill,-31.95,141.4333,35.43,13,70,13.42,AU,1696221802
383,byron bay,-28.65,153.6167,30.39,55,0,6.9,AU,1696221619
384,howard springs,-12.497,131.047,32.95,38,12,4.79,AU,1696221803
385,kenai,60.5544,-151.2583,8.05,88,40,1.54,US,1696221803
386,tara,56.8944,74.371,9.43,81,18,3.13,RU,1696221803
387,inirida,3.8653,-67.9239,24.4,88,100,0.94,CO,1696221804
388,port shepstone,-30.7414,30.455,16.87,71,63,5.04,ZA,1696221804
389,la calera,-31.3438,-64.3353,16.82,43,0,5.66,AR,1696221536
390,jabat,7.75,168.9751,28.96,76,50,3.74,MH,1696221804
391,kayangel,8.0823,134.7173,28.46,73,94,0.72,PW,1696221804
392,satun,6.8333,100.0,30.0,56,80,3.05,TH,1696221805
393,acajutla,13.5928,-89.8275,26.98,86,99,1.55,SV,1696221805
394,tsumeb,-19.2333,17.7167,23.92,15,0,4.04,NA,1696221805
395,kismayo,-0.3582,42.5454,26.99,70,2,5.77,SO,1696221805
396,shambu,9.5667,37.1,13.82,81,4,1.46,ET,1696221806
397,nadym,65.5333,72.5167,8.66,91,100,7.72,RU,1696221807
398,paita,-5.0892,-81.1144,19.39,88,51,5.21,PE,1696221807
399,kudahuvadhoo,2.6708,72.8944,27.83,77,99,5.04,MV,1696221807
400,soran,49.78,72.8506,10.27,80,100,7.98,KZ,1696221807
401,shahrud,36.4182,54.9763,20.1,23,25,1.69,IR,1696221808
402,mamuju,-2.6748,118.8885,29.86,70,98,3.03,ID,1696221808
403,bocas del toro,9.3333,-82.25,24.54,87,96,3.19,PA,1696221808
404,saint-francois,46.4154,3.9054,9.82,100,19,1.03,FR,1696221809
405,nadi,-17.8,177.4167,27.0,57,75,4.12,FJ,1696221639
406,mount isa,-20.7333,139.5,35.87,13,0,5.66,AU,1696221809
407,lata,40.1629,-8.3327,14.49,61,0,0.94,PT,1696221809
408,zambezi,-13.5432,23.1047,23.2,43,53,1.09,ZM,1696221809
409,palmer,42.1584,-72.3287,17.88,84,0,0.0,US,1696221581
410,moussoro,13.6408,16.4901,29.16,43,100,2.7,TD,1696221810
411,sandnessjoen,66.0217,12.6316,5.06,87,75,1.03,NO,1696221810
412,suva,-18.1416,178.4415,21.71,94,75,2.57,FJ,1696221810
413,naliya,23.2667,68.8333,31.37,34,100,3.16,IN,1696221811
414,twon-brass,4.3151,6.2418,26.38,84,83,4.31,NG,1696221811
415,nikel,69.4128,30.222,0.1,83,31,2.71,RU,1696221811
416,recani,31.2846,-4.2688,23.11,30,7,1.96,MA,1696221811
417,port lincoln,-34.7333,135.8667,25.73,41,0,4.05,AU,1696221812
418,mu'minobod,38.1085,70.0285,19.35,25,75,2.61,TJ,1696221812
419,suining,30.508,105.5733,19.4,90,100,2.08,CN,1696221812
420,brazzaville,-4.2658,15.2832,26.2,73,20,3.6,CG,1696221761
421,bathurst,-33.4166,149.5806,31.57,27,34,1.34,AU,1696221812
422,galle,6.0367,80.217,27.66,76,80,3.42,LK,1696221607
423,guerrero negro,27.9769,-114.0611,19.7,82,20,7.24,MX,1696221813
424,qamdo,31.1667,97.2333,14.55,38,40,1.62,CN,1696221813
425,talara,-4.5772,-81.2719,20.2,85,88,7.14,PE,1696221813
426,chigorodo,7.6664,-76.6811,23.71,98,100,1.39,CO,1696221814
427,jiuquan,39.7432,98.5174,19.55,24,0,2.96,CN,1696221814
428,vila franca do campo,37.7167,-25.4333,19.38,99,83,3.62,PT,1696221814
429,happy valley-goose bay,53.3168,-60.3315,9.17,66,75,4.63,CA,1696221814
430,colares,38.7992,-9.4469,20.74,80,0,3.58,PT,1696221814
431,vorkuta,67.5,64.0,9.4,97,100,7.59,RU,1696221815
432,rio grande,-32.035,-52.0986,9.97,81,3,2.66,BR,1696221572
433,karratha,-20.7377,116.8463,34.35,19,0,7.67,AU,1696221815
434,ilek,51.5271,53.3831,14.77,53,96,3.55,RU,1696221815
435,escanaba,45.7453,-87.0646,20.98,83,0,5.14,US,1696221815
436,ryki,51.6257,21.9327,8.83,46,15,2.42,PL,1696221816
437,mount pearl,47.5166,-52.7813,12.3,91,40,7.2,CA,1696221816
438,prince rupert,54.3161,-130.3201,11.05,95,100,10.29,CA,1696221816
439,pandharpur,17.6667,75.3333,23.97,73,100,7.51,IN,1696221816
440,akseki,37.0486,31.79,13.11,76,1,3.29,TR,1696221817
441,khandyga,62.6667,135.6,8.75,78,98,1.99,RU,1696221817
442,mayya,61.7333,130.2811,7.62,65,100,1.91,RU,1696221817
443,smithers,54.7804,-127.1743,8.18,93,100,1.54,CA,1696221817
444,bandarbeyla,9.4942,50.8122,28.44,71,6,6.62,SO,1696221817
445,goroka,-6.0834,145.3873,21.46,86,95,0.67,PG,1696221818
446,batang,-6.4846,110.7083,30.81,50,30,5.47,ID,1696221818
447,korem,12.5058,39.5228,15.61,64,3,1.7,ET,1696221818
448,chilca,-12.5211,-76.7372,17.43,93,33,3.69,PE,1696221818
449,khor,47.8861,134.9464,10.58,80,99,3.49,RU,1696221818
450,ambon,-3.6954,128.1814,29.08,74,75,3.09,ID,1696221819
451,thinadhoo,0.5333,72.9333,27.74,76,14,6.16,MV,1696221819
452,taksimo,56.3444,114.8794,2.62,90,100,3.58,RU,1696221819
453,ataq,14.5377,46.8319,25.99,36,5,2.14,YE,1696221819
454,peniche,39.3558,-9.3811,19.69,93,0,2.15,PT,1696221819
455,jolo,6.05,121.0167,30.07,67,93,5.31,PH,1696221820
456,malmslatt,58.411,15.5165,11.93,94,75,4.63,SE,1696221820
457,alcacer do sal,38.3733,-8.5144,17.71,83,4,0.39,PT,1696221820
458,kerman,30.2832,57.0788,16.92,29,0,3.09,IR,1696221820
459,lianhe,47.1333,129.2667,13.75,54,77,3.67,CN,1696221820
460,la'ie,21.6477,-157.9253,27.98,76,19,3.13,US,1696221821
461,abatskoye,56.2875,70.4555,12.67,65,8,5.06,RU,1696221821
462,fort saskatchewan,53.7168,-113.2187,9.44,77,32,9.39,CA,1696221821
463,pailon,-17.65,-62.75,24.5,65,72,1.97,BO,1696221821
464,dzhangala,49.2167,50.3333,16.56,47,96,3.16,KZ,1696221822
465,kataba,13.9833,44.3833,20.06,32,1,1.91,YE,1696221822
466,puerto ayacucho,5.6639,-67.6236,24.69,90,85,1.32,VE,1696221822
467,al bawiti,28.3492,28.8659,22.77,64,90,3.39,EG,1696221822
468,abidjan,5.3094,-4.0197,25.98,89,20,3.6,CI,1696221756
469,boden,65.8252,21.6886,5.0,89,100,2.52,SE,1696221823
470,hilo,19.7297,-155.09,25.05,88,47,2.95,US,1696221571
471,sawakin,19.1059,37.3321,30.03,66,0,1.51,SD,1696221567
472,tokar,18.4254,37.729,30.92,63,0,3.55,SD,1696221823
473,ramnagar,29.4,79.1167,30.53,56,0,1.5,IN,1696221823
474,paracale,14.2804,122.7881,32.32,63,99,3.87,PH,1696221824
475,bafoulabe,13.8065,-10.8321,25.57,83,100,1.61,ML,1696221824
476,burela de cabo,43.65,-7.4,20.02,74,68,1.58,ES,1696221824
477,mizan teferi,6.9833,35.5833,19.79,80,100,0.98,ET,1696221825
478,ngambe,4.2333,10.6167,21.4,100,100,0.54,CM,1696221825
479,kalabo,-14.97,22.6814,23.41,37,19,1.66,ZM,1696221825
480,waddan,29.1614,16.139,19.49,76,17,2.08,LY,1696221825
481,mahdia,35.5047,11.0622,22.97,71,6,3.04,TN,1696221528
482,floro,61.5996,5.0328,11.98,87,40,4.63,NO,1696221826
483,sabang,5.8933,95.3214,28.01,77,39,6.53,ID,1696221826
484,irkutsk,52.2978,104.2964,6.43,52,0,2.0,RU,1696221826
485,sarangani,5.4033,125.4636,28.79,74,74,4.35,PH,1696221826
486,puerto lopez,4.0845,-72.956,24.11,92,69,1.63,CO,1696221827
487,persembe,41.0656,37.7714,18.68,94,100,5.23,TR,1696221827
488,urzhar,47.093,81.6294,19.74,36,86,3.84,KZ,1696221827
489,argo,37.6333,22.7333,20.53,54,16,1.52,GR,1696221827
490,portalegre,39.2938,-7.4312,18.77,51,3,0.18,PT,1696221828
491,bamboo flat,11.7,92.7167,27.05,89,75,2.57,IN,1696221828
492,kapit,2.0167,112.9333,33.57,48,99,0.81,MY,1696221828
493,darnah,32.767,22.6367,23.16,66,0,4.29,LY,1696221828
494,guangshui,31.6199,113.9978,18.18,93,100,1.78,CN,1696221828
495,salinas,36.6777,-121.6555,15.31,87,40,2.57,US,1696221829
496,campos do jordao,-22.7394,-45.5914,14.34,99,99,0.29,BR,1696221829
497,yemva,62.59,50.8594,12.25,86,100,4.47,RU,1696221829
498,mandalgovi,45.7625,106.2708,14.57,27,11,7.11,MN,1696221829
499,glace bay,46.1969,-59.957,12.1,96,40,3.09,CA,1696221829
500,nizhneudinsk,54.9076,99.0276,4.45,56,99,0.45,RU,1696221830
501,plettenberg bay,-34.0527,23.3716,14.24,67,3,2.25,ZA,1696221830
502,ujae,8.9322,165.7642,28.9,74,47,3.75,MH,1696221830
503,sao jose da coroa grande,-8.8978,-35.1478,22.63,79,7,0.65,BR,1696221812
504,popondetta,-8.7537,148.2534,27.55,88,95,1.81,PG,1696221830
505,mana,5.6592,-53.7767,26.26,83,77,5.85,GF,1696221831
506,rantepao,-2.9701,119.8978,30.93,41,83,2.37,ID,1696221831
507,puerto madero,14.7208,-92.4215,25.11,100,40,0.0,MX,1696221832
508,puerto baquerizo moreno,-0.9,-89.6,22.52,89,99,4.79,EC,1696221832
509,kirensk,57.7853,108.1119,2.23,61,100,4.92,RU,1696221832
510,port saint john's,-31.6229,29.5448,17.32,67,42,5.85,ZA,1696221833
511,luanda,-8.8368,13.2343,23.0,83,75,2.06,AO,1696221681
512,itanhaem,-24.1831,-46.7889,19.48,92,100,2.21,BR,1696221833
513,mount gambier,-37.8333,140.7667,26.32,33,0,5.42,AU,1696221833
514,praia da vitoria,38.7333,-27.0667,18.75,88,40,4.51,PT,1696221833
515,tulun,54.5611,100.5792,5.82,49,85,1.89,RU,1696221834
516,simplicio mendes,-7.8539,-41.9103,23.8,37,6,2.11,BR,1696221834
517,muang khong,14.1167,105.85,31.69,67,76,1.05,LA,1696221834
518,monze,-16.2833,27.4833,25.17,32,24,6.3,ZM,1696221834
519,yeniseysk,58.4497,92.1703,3.83,58,100,4.27,RU,1696221834
520,shemordan,56.1856,50.3972,12.0,80,100,3.09,RU,1696221835
521,lamu,-2.2717,40.902,25.12,71,4,5.55,KE,1696221835
522,greenville,35.6127,-77.3663,15.64,97,75,0.0,US,1696221820
523,antofagasta,-23.65,-70.4,15.6,86,38,2.38,CL,1696221835
524,katabu,-4.9333,122.5167,34.45,40,70,0.77,ID,1696221836
525,crane,31.3974,-102.3501,24.17,66,8,7.47,US,1696221836
526,meadow lakes,61.6247,-149.6011,8.19,96,100,0.0,US,1696221836
527,mili,6.0815,171.735,29.07,69,95,0.81,MH,1696221836
528,thunder bay,48.4001,-89.3168,15.99,100,100,3.6,CA,1696221649
529,uturoa,-16.7333,-151.4333,25.84,82,31,7.07,PF,1696221837
530,val-d'or,48.1002,-77.7828,10.05,87,0,3.09,CA,1696221837
531,aleksandrovsk-sakhalinskiy,50.8975,142.1561,11.43,94,100,6.41,RU,1696221837
532,wenchang,30.904,118.4887,22.33,70,90,4.53,CN,1696221837
533,adh dhayd,25.2881,55.8816,31.4,47,0,2.0,AE,1696221837
534,antsiranana,-12.2787,49.2917,25.42,69,20,3.09,MG,1696221838
535,luwuk,-0.9516,122.7875,30.92,59,42,2.42,ID,1696221838
536,miyaly,48.8844,53.7836,17.97,50,65,5.22,KZ,1696221838
537,talakan,50.3167,130.3667,13.15,59,51,4.53,RU,1696221838
538,daru,-9.0763,143.2092,26.98,79,85,6.67,PG,1696221839
539,tuineje,28.3237,-14.0472,21.88,78,5,3.36,ES,1696221839
540,polillo,14.7122,121.9392,31.11,70,100,4.49,PH,1696221839
541,freetown,8.484,-13.2299,25.58,85,100,1.75,SL,1696221839
542,pontianak,-0.0333,109.3333,32.99,46,20,4.12,ID,1696221839
543,hede,33.7681,120.2517,23.62,48,88,3.65,CN,1696221840
544,conception bay south,47.4999,-52.9981,12.63,93,4,4.17,CA,1696221840
545,roma,43.2128,-75.4557,17.19,95,0,0.0,US,1696221840
546,rakops,-21.0167,24.3333,18.66,62,1,8.16,BW,1696221840
547,ohara,35.25,140.3833,25.92,60,100,6.84,JP,1696221840
548,maumere,-8.6199,122.2111,28.69,66,83,0.56,ID,1696221840
549,santa terezinha,-29.9002,-50.0904,11.86,78,0,1.94,BR,1696221841
550,ugoofaaru,5.6667,73.0,27.55,76,100,5.57,MV,1696221841
